{"type":"FeatureCollection", "features": [
{"type":"Feature","geometry":{"type":"Point","coordinates":[-72.04513983477113,41.330064436013515]},"properties":{"OBJECTID":1,"ICAO":"KGON","IATA":"GON","NAME":"Groton-New London Airport","CITY":"Groton (New London)","STATE":"CT","STATE_FIPS":"09","COUNTY":"New  London","FIPS":"09011","TOT_ENP":75,"ELEV":9,"CNTL_TWR":"Y"}},
{"type":"Feature","geometry":{"type":"Point","coordinates":[-114.1255530890254,46.251500373620104]},"properties":{"OBJECTID":2,"ICAO":"K6S5","IATA":"6S5","NAME":"Ravalli County Airport","CITY":"Hamilton","STATE":"MT","STATE_FIPS":"30","COUNTY":"Ravalli","FIPS":"30081","TOT_ENP":112,"ELEV":3642,"CNTL_TWR":"N"}},
{"type":"Feature","geometry":{"type":"Point","coordinates":[-118.15056827623488,35.058643959960364]},"properties":{"OBJECTID":3,"ICAO":"KMHV","IATA":"MHV","NAME":"Mojave Airport","CITY":"Mojave","STATE":"CA","STATE_FIPS":"06","COUNTY":"Kern","FIPS":"06029","TOT_ENP":135,"ELEV":2801,"CNTL_TWR":"Y"}},
{"type":"Feature","geometry":{"type":"Point","coordinates":[-116.97245589874564,32.82622679218923]},"properties":{"OBJECTID":4,"ICAO":"KSEE","IATA":"SEE","NAME":"Gillespie Field Airport","CITY":"San Diego/El Cajon","STATE":"CA","STATE_FIPS":"06","COUNTY":"San Diego","FIPS":"06073","TOT_ENP":30,"ELEV":388,"CNTL_TWR":"Y"}},
{"type":"Feature","geometry":{"type":"Point","coordinates":[-80.37263479162004,27.49748409719541]},"properties":{"OBJECTID":5,"ICAO":"KFPR","IATA":"FPR","NAME":"St Lucie County International Airport","CITY":"Fort Pierce","STATE":"FL","STATE_FIPS":"12","COUNTY":"St Lucie","FIPS":"12111","TOT_ENP":33,"ELEV":24,"CNTL_TWR":"Y"}},
{"type":"Feature","geometry":{"type":"Point","coordinates":[-84.59706027173604,34.01316350690888]},"properties":{"OBJECTID":6,"ICAO":"KRYY","IATA":"RYY","NAME":"Cobb County-Mc Collum Field","CITY":"Atlanta","STATE":"GA","STATE_FIPS":"13","COUNTY":"Cobb","FIPS":"13067","TOT_ENP":110,"ELEV":1041,"CNTL_TWR":"Y"}},
{"type":"Feature","geometry":{"type":"Point","coordinates":[-88.91561658146065,35.59989561825148]},"properties":{"OBJECTID":7,"ICAO":"KMKL","IATA":"MKL","NAME":"Mc Kellar-Sipes Regional Airport","CITY":"Jackson","STATE":"TN","STATE_FIPS":"47","COUNTY":"Madison","FIPS":"47113","TOT_ENP":2545,"ELEV":434,"CNTL_TWR":"Y"}},
{"type":"Feature","geometry":{"type":"Point","coordinates":[-122.05690216134622,37.98967199989187]},"properties":{"OBJECTID":8,"ICAO":"KCCR","IATA":"CCR","NAME":"Buchanan Field Airport","CITY":"Concord","STATE":"CA","STATE_FIPS":"06","COUNTY":"Contra Costa","FIPS":"06013","TOT_ENP":53,"ELEV":26,"CNTL_TWR":"Y"}},
{"type":"Feature","geometry":{"type":"Point","coordinates":[-77.55750247083199,39.077979807832435]},"properties":{"OBJECTID":9,"ICAO":"KJYO","IATA":"JYO","NAME":"Leesburg Executive Airport","CITY":"Leesburg","STATE":"VA","STATE_FIPS":"51","COUNTY":"Loudoun","FIPS":"51107","TOT_ENP":46,"ELEV":389,"CNTL_TWR":"N"}},
{"type":"Feature","geometry":{"type":"Point","coordinates":[-85.41892234365503,44.275341369455646]},"properties":{"OBJECTID":10,"ICAO":"KCAD","IATA":"CAD","NAME":"Wexford County Airport","CITY":"Cadillac","STATE":"MI","STATE_FIPS":"26","COUNTY":"Wexford","FIPS":"26165","TOT_ENP":57,"ELEV":1307,"CNTL_TWR":"N"}},
{"type":"Feature","geometry":{"type":"Point","coordinates":[-72.03161185439996,41.25131641993204]},"properties":{"OBJECTID":11,"ICAO":"K0B8","IATA":"0B8","NAME":"Elizabeth Field Airport","CITY":"Fishers Island","STATE":"NY","STATE_FIPS":"36","COUNTY":"Suffolk","FIPS":"36103","TOT_ENP":66,"ELEV":9,"CNTL_TWR":"N"}},
{"type":"Feature","geometry":{"type":"Point","coordinates":[-116.98017287756176,32.57227672767198]},"properties":{"OBJECTID":12,"ICAO":"KSDM","IATA":"SDM","NAME":"Brown Field Municipal Airport","CITY":"San Diego","STATE":"CA","STATE_FIPS":"06","COUNTY":"San Diego","FIPS":"06073","TOT_ENP":194,"ELEV":526,"CNTL_TWR":"Y"}},
{"type":"Feature","geometry":{"type":"Point","coordinates":[-94.89031349045445,38.83092393743448]},"properties":{"OBJECTID":13,"ICAO":"KIXD","IATA":"IXD","NAME":"New Century Aircenter Airport","CITY":"Olathe","STATE":"KS","STATE_FIPS":"20","COUNTY":"Johnson","FIPS":"20091","TOT_ENP":51,"ELEV":1087,"CNTL_TWR":"Y"}},
{"type":"Feature","geometry":{"type":"Point","coordinates":[-115.49025884877193,48.283851385230435]},"properties":{"OBJECTID":14,"ICAO":"KS59","IATA":"S59","NAME":"Libby Airport","CITY":"Libby","STATE":"MT","STATE_FIPS":"30","COUNTY":"Lincoln","FIPS":"30053","TOT_ENP":53,"ELEV":2601,"CNTL_TWR":"N"}},
{"type":"Feature","geometry":{"type":"Point","coordinates":[-87.85172800044472,43.769777151071025]},"properties":{"OBJECTID":15,"ICAO":"KSBM","IATA":"SBM","NAME":"Sheboygan County Memorial Airport","CITY":"Sheboygan","STATE":"WI","STATE_FIPS":"55","COUNTY":"Sheboygan","FIPS":"55117","TOT_ENP":114,"ELEV":755,"CNTL_TWR":"N"}},
{"type":"Feature","geometry":{"type":"Point","coordinates":[-112.29515004498666,33.5269221251628]},"properties":{"OBJECTID":16,"ICAO":"KGEU","IATA":"GEU","NAME":"Glendale Municipal Airport","CITY":"Glendale","STATE":"AZ","STATE_FIPS":"04","COUNTY":"Maricopa","FIPS":"04013","TOT_ENP":27,"ELEV":1071,"CNTL_TWR":"Y"}},
{"type":"Feature","geometry":{"type":"Point","coordinates":[-152.30189910032547,63.88599807384156]},"properties":{"OBJECTID":17,"ICAO":"PAMH","IATA":"MHM","NAME":"Minchumina Airport","CITY":"Minchumina","STATE":"AK","STATE_FIPS":"02","COUNTY":"Yukon-Koyukuk","FIPS":"02290","TOT_ENP":124,"ELEV":678,"CNTL_TWR":"N"}},
{"type":"Feature","geometry":{"type":"Point","coordinates":[-81.86325317160885,26.586615866248394]},"properties":{"OBJECTID":18,"ICAO":"KFMY","IATA":"FMY","NAME":"Page Field Airport","CITY":"Fort Myers","STATE":"FL","STATE_FIPS":"12","COUNTY":"Lee","FIPS":"12071","TOT_ENP":100,"ELEV":17,"CNTL_TWR":"Y"}},
{"type":"Feature","geometry":{"type":"Point","coordinates":[-102.91278687939456,30.915255116506728]},"properties":{"OBJECTID":19,"ICAO":"KFST","IATA":"FST","NAME":"Fort Stockton-Pecos County Airport","CITY":"Fort Stockton","STATE":"TX","STATE_FIPS":"48","COUNTY":"Pecos","FIPS":"48371","TOT_ENP":30,"ELEV":3011,"CNTL_TWR":"N"}},
{"type":"Feature","geometry":{"type":"Point","coordinates":[-149.36999129845563,65.14371046987173]},"properties":{"OBJECTID":20,"ICAO":"NONE","IATA":"51Z","NAME":"Minto Al Wright Airport","CITY":"Minto","STATE":"AK","STATE_FIPS":"02","COUNTY":"Yukon-Koyukuk","FIPS":"02290","TOT_ENP":294,"ELEV":460,"CNTL_TWR":"N"}},
{"type":"Feature","geometry":{"type":"Point","coordinates":[-76.41378012917346,39.32567487538108]},"properties":{"OBJECTID":21,"ICAO":"KMTN","IATA":"MTN","NAME":"Martin State Airport","CITY":"Baltimore","STATE":"MD","STATE_FIPS":"24","COUNTY":"Baltimore","FIPS":"24005","TOT_ENP":139,"ELEV":21,"CNTL_TWR":"Y"}},
{"type":"Feature","geometry":{"type":"Point","coordinates":[-81.48636486550782,41.5651190973652]},"properties":{"OBJECTID":22,"ICAO":"KCGF","IATA":"CGF","NAME":"Cuyahoga County Airport","CITY":"Cleveland","STATE":"OH","STATE_FIPS":"39","COUNTY":"Cuyahoga","FIPS":"39035","TOT_ENP":46,"ELEV":879,"CNTL_TWR":"Y"}},
{"type":"Feature","geometry":{"type":"Point","coordinates":[-157.01994118171893,58.73288168378082]},"properties":{"OBJECTID":23,"ICAO":"PFWS","IATA":"WSN","NAME":"Naknek Airport","CITY":"Naknek","STATE":"AK","STATE_FIPS":"02","COUNTY":"Bristol Bay","FIPS":"02060","TOT_ENP":190,"ELEV":70,"CNTL_TWR":"N"}},
{"type":"Feature","geometry":{"type":"Point","coordinates":[-85.7381988986184,38.365424302713336]},"properties":{"OBJECTID":24,"ICAO":"KJVY","IATA":"JVY","NAME":"Clark Regional Airport","CITY":"Jeffersonville","STATE":"IN","STATE_FIPS":"18","COUNTY":"Clark","FIPS":"18019","TOT_ENP":28,"ELEV":474,"CNTL_TWR":"N"}},
{"type":"Feature","geometry":{"type":"Point","coordinates":[-116.81959694947295,47.77431219699889]},"properties":{"OBJECTID":25,"ICAO":"KCOE","IATA":"COE","NAME":"Coeur D'alene Air Terminal","CITY":"Coeur D'Alene","STATE":"ID","STATE_FIPS":"16","COUNTY":"Kootenai","FIPS":"16055","TOT_ENP":162,"ELEV":2320,"CNTL_TWR":"N"}},
{"type":"Feature","geometry":{"type":"Point","coordinates":[-168.84904541862082,52.941555609688294]},"properties":{"OBJECTID":26,"ICAO":"PAKO","IATA":"IKO","NAME":"Nikolski As Airport","CITY":"Nikolski","STATE":"AK","STATE_FIPS":"02","COUNTY":"Aleutian Islands","FIPS":"02016","TOT_ENP":160,"ELEV":77,"CNTL_TWR":"N"}},
{"type":"Feature","geometry":{"type":"Point","coordinates":[-106.10854571329793,32.851864311279485]},"properties":{"OBJECTID":27,"ICAO":"KHMN","IATA":"HMN","NAME":"Holloman Air Force Base","CITY":"Alamogordo","STATE":"NM","STATE_FIPS":"35","COUNTY":"Otero","FIPS":"35035","TOT_ENP":468,"ELEV":4093,"CNTL_TWR":"Y"}},
{"type":"Feature","geometry":{"type":"Point","coordinates":[-82.01855927777211,27.988922178338044]},"properties":{"OBJECTID":28,"ICAO":"KLAL","IATA":"LAL","NAME":"Lakeland Linder Regional Airport","CITY":"Lakeland","STATE":"FL","STATE_FIPS":"12","COUNTY":"Polk","FIPS":"12105","TOT_ENP":179,"ELEV":142,"CNTL_TWR":"Y"}},
{"type":"Feature","geometry":{"type":"Point","coordinates":[-81.05136388769574,24.726198419770185]},"properties":{"OBJECTID":29,"ICAO":"KMTH","IATA":"MTH","NAME":"The Florida Keys Marathon Airport","CITY":"Marathon","STATE":"FL","STATE_FIPS":"12","COUNTY":"Monroe","FIPS":"12087","TOT_ENP":36,"ELEV":5,"CNTL_TWR":"N"}},
{"type":"Feature","geometry":{"type":"Point","coordinates":[-85.2514850849198,42.30728604979004]},"properties":{"OBJECTID":30,"ICAO":"KBTL","IATA":"BTL","NAME":"W K Kellogg Airport","CITY":"Battle Creek","STATE":"MI","STATE_FIPS":"26","COUNTY":"Calhoun","FIPS":"26025","TOT_ENP":269,"ELEV":952,"CNTL_TWR":"Y"}},
{"type":"Feature","geometry":{"type":"Point","coordinates":[-167.9224829784189,65.56403126666362]},"properties":{"OBJECTID":31,"ICAO":"PATC","IATA":"TNC","NAME":"Tin City Lrrs Airport","CITY":"Tin City","STATE":"AK","STATE_FIPS":"02","COUNTY":"Nome","FIPS":"02180","TOT_ENP":190,"ELEV":271,"CNTL_TWR":"N"}},
{"type":"Feature","geometry":{"type":"Point","coordinates":[-109.5754327291632,36.110886632423956]},"properties":{"OBJECTID":32,"ICAO":"KE91","IATA":"E91","NAME":"Chinle Municipal Airport","CITY":"Chinle","STATE":"AZ","STATE_FIPS":"04","COUNTY":"Apache","FIPS":"04001","TOT_ENP":710,"ELEV":5547,"CNTL_TWR":"N"}},
{"type":"Feature","geometry":{"type":"Point","coordinates":[-70.28350743562925,44.04848200409049]},"properties":{"OBJECTID":33,"ICAO":"KLEW","IATA":"LEW","NAME":"Auburn/lewiston Municipal Airport","CITY":"Auburn/Lewiston","STATE":"ME","STATE_FIPS":"23","COUNTY":"Androscoggin","FIPS":"23001","TOT_ENP":25,"ELEV":288,"CNTL_TWR":"N"}},
{"type":"Feature","geometry":{"type":"Point","coordinates":[-149.59758787849267,70.33082008625559]},"properties":{"OBJECTID":34,"ICAO":"PAKU","IATA":"UBW","NAME":"Ugnu-Kuparuk Airport","CITY":"Kuparuk","STATE":"AK","STATE_FIPS":"02","COUNTY":"North Slope","FIPS":"02185","TOT_ENP":38,"ELEV":67,"CNTL_TWR":"N"}},
{"type":"Feature","geometry":{"type":"Point","coordinates":[-77.52483534553176,37.40645144728654]},"properties":{"OBJECTID":35,"ICAO":"KFCI","IATA":"FCI","NAME":"Chesterfield County Airport","CITY":"Richmond","STATE":"VA","STATE_FIPS":"51","COUNTY":"Chesterfield","FIPS":"51041","TOT_ENP":41,"ELEV":236,"CNTL_TWR":"N"}},
{"type":"Feature","geometry":{"type":"Point","coordinates":[-68.01791685758258,46.87150957892044]},"properties":{"OBJECTID":36,"ICAO":"KCAR","IATA":"CAR","NAME":"Caribou Municipal Airport","CITY":"Caribou","STATE":"ME","STATE_FIPS":"23","COUNTY":"Aroostook","FIPS":"23003","TOT_ENP":35,"ELEV":626,"CNTL_TWR":"N"}},
{"type":"Feature","geometry":{"type":"Point","coordinates":[-157.73988643712832,57.425358679251474]},"properties":{"OBJECTID":37,"ICAO":"NONE","IATA":"UGB","NAME":"Ugashik Bay Airport","CITY":"Pilot Point","STATE":"AK","STATE_FIPS":"02","COUNTY":"Bristol Bay","FIPS":"02060","TOT_ENP":187,"ELEV":132,"CNTL_TWR":"N"}},
{"type":"Feature","geometry":{"type":"Point","coordinates":[-109.762345683955,48.54297903520671]},"properties":{"OBJECTID":38,"ICAO":"KHVR","IATA":"HVR","NAME":"Havre City-County Airport","CITY":"Havre","STATE":"MT","STATE_FIPS":"30","COUNTY":"Hill","FIPS":"30041","TOT_ENP":961,"ELEV":2591,"CNTL_TWR":"N"}},
{"type":"Feature","geometry":{"type":"Point","coordinates":[-86.1521241823566,40.64810169920668]},"properties":{"OBJECTID":39,"ICAO":"KGUS","IATA":"GUS","NAME":"Grissom Air Reserve Base","CITY":"Peru","STATE":"IN","STATE_FIPS":"18","COUNTY":"Miami","FIPS":"18103","TOT_ENP":94,"ELEV":812,"CNTL_TWR":"Y"}},
{"type":"Feature","geometry":{"type":"Point","coordinates":[-87.86791287020282,42.422167949025265]},"properties":{"OBJECTID":40,"ICAO":"KUGN","IATA":"UGN","NAME":"Waukegan Regional Airport","CITY":"Chicago/Waukegan","STATE":"IL","STATE_FIPS":"17","COUNTY":"Lake","FIPS":"17097","TOT_ENP":164,"ELEV":727,"CNTL_TWR":"Y"}},
{"type":"Feature","geometry":{"type":"Point","coordinates":[-85.39575494942926,40.2424796765568]},"properties":{"OBJECTID":41,"ICAO":"KMIE","IATA":"MIE","NAME":"Delaware County Regional Airport","CITY":"Muncie","STATE":"IN","STATE_FIPS":"18","COUNTY":"Delaware","FIPS":"18035","TOT_ENP":457,"ELEV":937,"CNTL_TWR":"Y"}},
{"type":"Feature","geometry":{"type":"Point","coordinates":[-95.65653504670837,29.622255162890724]},"properties":{"OBJECTID":42,"ICAO":"KSGR","IATA":"SGR","NAME":"Sugar Land Regional Airport","CITY":"Houston","STATE":"TX","STATE_FIPS":"48","COUNTY":"Fort Bend","FIPS":"48157","TOT_ENP":189,"ELEV":82,"CNTL_TWR":"Y"}},
{"type":"Feature","geometry":{"type":"Point","coordinates":[-152.13501432292122,69.37111366186696]},"properties":{"OBJECTID":43,"ICAO":"PAUM","IATA":"UMT","NAME":"Umiat Airport","CITY":"Umiat","STATE":"AK","STATE_FIPS":"02","COUNTY":"Barrow","FIPS":"02185","TOT_ENP":107,"ELEV":267,"CNTL_TWR":"N"}},
{"type":"Feature","geometry":{"type":"Point","coordinates":[-156.58855117563735,61.789750523464704]},"properties":{"OBJECTID":44,"ICAO":"NONE","IATA":"SRV","NAME":"Stony River 2 Airport","CITY":"Stony River","STATE":"AK","STATE_FIPS":"02","COUNTY":"Bethel","FIPS":"02050","TOT_ENP":217,"ELEV":230,"CNTL_TWR":"N"}},
{"type":"Feature","geometry":{"type":"Point","coordinates":[-145.45435668596195,62.15494630800532]},"properties":{"OBJECTID":45,"ICAO":"PAGK","IATA":"GKN","NAME":"Gulkana Airport","CITY":"Gulkana","STATE":"AK","STATE_FIPS":"02","COUNTY":"Valdez-Chitna-Whitie","FIPS":"02261","TOT_ENP":141,"ELEV":1586,"CNTL_TWR":"N"}},
{"type":"Feature","geometry":{"type":"Point","coordinates":[-156.06821412311348,62.992704509439136]},"properties":{"OBJECTID":46,"ICAO":"NONE","IATA":"TCT","NAME":"Takotna Airport","CITY":"Takotna","STATE":"AK","STATE_FIPS":"02","COUNTY":"Yukon-Koyukuk","FIPS":"02290","TOT_ENP":190,"ELEV":825,"CNTL_TWR":"N"}},
{"type":"Feature","geometry":{"type":"Point","coordinates":[-82.51664312392859,40.821424904881155]},"properties":{"OBJECTID":47,"ICAO":"KMFD","IATA":"MFD","NAME":"Mansfield Lahm Regional Airport","CITY":"Mansfield","STATE":"OH","STATE_FIPS":"39","COUNTY":"Richland","FIPS":"39139","TOT_ENP":392,"ELEV":1297,"CNTL_TWR":"Y"}},
{"type":"Feature","geometry":{"type":"Point","coordinates":[-104.80720921846819,47.138726330554846]},"properties":{"OBJECTID":48,"ICAO":"KGDV","IATA":"GDV","NAME":"Dawson Communicipalty Airport","CITY":"Glendive","STATE":"MT","STATE_FIPS":"30","COUNTY":"Dawson","FIPS":"30021","TOT_ENP":427,"ELEV":2458,"CNTL_TWR":"N"}},
{"type":"Feature","geometry":{"type":"Point","coordinates":[-71.41784280281968,43.57305088205112]},"properties":{"OBJECTID":49,"ICAO":"KLCI","IATA":"LCI","NAME":"Laconia Municipal Airport","CITY":"Laconia","STATE":"NH","STATE_FIPS":"33","COUNTY":"Belknap","FIPS":"33001","TOT_ENP":200,"ELEV":545,"CNTL_TWR":"N"}},
{"type":"Feature","geometry":{"type":"Point","coordinates":[-97.64706392987841,35.53417320368402]},"properties":{"OBJECTID":50,"ICAO":"KPWA","IATA":"PWA","NAME":"Wiley Post Airport","CITY":"Oklahoma City","STATE":"OK","STATE_FIPS":"40","COUNTY":"Oklahoma","FIPS":"40109","TOT_ENP":126,"ELEV":1300,"CNTL_TWR":"Y"}},
{"type":"Feature","geometry":{"type":"Point","coordinates":[-150.14085967685386,65.5079012883715]},"properties":{"OBJECTID":51,"ICAO":"NONE","IATA":"RMP","NAME":"Rampart Airport","CITY":"Rampart","STATE":"AK","STATE_FIPS":"02","COUNTY":"Yukon-Koyukuk","FIPS":"02290","TOT_ENP":224,"ELEV":302,"CNTL_TWR":"N"}},
{"type":"Feature","geometry":{"type":"Point","coordinates":[-89.53154045605987,43.11427794710903]},"properties":{"OBJECTID":52,"ICAO":"KC29","IATA":"C29","NAME":"Middleton Municipal - Morey Field Airport","CITY":"Middleton","STATE":"WI","STATE_FIPS":"55","COUNTY":"Dane","FIPS":"55025","TOT_ENP":269,"ELEV":928,"CNTL_TWR":"N"}},
{"type":"Feature","geometry":{"type":"Point","coordinates":[-90.41838673832456,30.5216925301022]},"properties":{"OBJECTID":53,"ICAO":"KHDC","IATA":"HDC","NAME":"Hammond Northshore Regional Airport","CITY":"Hammond","STATE":"LA","STATE_FIPS":"22","COUNTY":"Tangipahoa","FIPS":"22105","TOT_ENP":104,"ELEV":47,"CNTL_TWR":"N"}},
{"type":"Feature","geometry":{"type":"Point","coordinates":[-87.67178298728015,30.28964459006596]},"properties":{"OBJECTID":54,"ICAO":"KJKA","IATA":"JKA","NAME":"Jack Edwards Airport","CITY":"Gulf Shores","STATE":"AL","STATE_FIPS":"01","COUNTY":"Baldwin","FIPS":"01003","TOT_ENP":333,"ELEV":17,"CNTL_TWR":"N"}},
{"type":"Feature","geometry":{"type":"Point","coordinates":[-81.43708611403679,28.28981128172154]},"properties":{"OBJECTID":55,"ICAO":"KISM","IATA":"ISM","NAME":"Kissimmee Gateway Airport","CITY":"Orlando","STATE":"FL","STATE_FIPS":"12","COUNTY":"Osceola","FIPS":"12097","TOT_ENP":84,"ELEV":82,"CNTL_TWR":"Y"}},
{"type":"Feature","geometry":{"type":"Point","coordinates":[-94.73759344273805,38.84760894654198]},"properties":{"OBJECTID":56,"ICAO":"KOJC","IATA":"OJC","NAME":"Johnson County Executive Airport","CITY":"Olathe","STATE":"KS","STATE_FIPS":"20","COUNTY":"Johnson","FIPS":"20091","TOT_ENP":69,"ELEV":1096,"CNTL_TWR":"Y"}},
{"type":"Feature","geometry":{"type":"Point","coordinates":[-114.84190112223985,39.299699659368684]},"properties":{"OBJECTID":57,"ICAO":"KELY","IATA":"ELY","NAME":"Ely Airport /yelland Field/ Airport","CITY":"Ely","STATE":"NV","STATE_FIPS":"32","COUNTY":"White Pine","FIPS":"32033","TOT_ENP":245,"ELEV":6259,"CNTL_TWR":"N"}},
{"type":"Feature","geometry":{"type":"Point","coordinates":[-122.76482094814622,47.49025554565742]},"properties":{"OBJECTID":58,"ICAO":"KPWT","IATA":"PWT","NAME":"Bremerton National Airport","CITY":"Bremerton","STATE":"WA","STATE_FIPS":"53","COUNTY":"Kitsap","FIPS":"53035","TOT_ENP":192,"ELEV":444,"CNTL_TWR":"N"}},
{"type":"Feature","geometry":{"type":"Point","coordinates":[-120.1395760649715,39.32004725304603]},"properties":{"OBJECTID":59,"ICAO":"KTRK","IATA":"TRK","NAME":"Truckee-Tahoe Airport","CITY":"Truckee","STATE":"CA","STATE_FIPS":"06","COUNTY":"Nevada","FIPS":"06057","TOT_ENP":65,"ELEV":5900,"CNTL_TWR":"N"}},
{"type":"Feature","geometry":{"type":"Point","coordinates":[-116.29518107644458,48.72597832016339]},"properties":{"OBJECTID":60,"ICAO":"K65S","IATA":"65S","NAME":"Boundary County Airport","CITY":"Bonners Ferry","STATE":"ID","STATE_FIPS":"16","COUNTY":"Boundary","FIPS":"16021","TOT_ENP":79,"ELEV":2337,"CNTL_TWR":"N"}},
{"type":"Feature","geometry":{"type":"Point","coordinates":[-83.0730322394545,40.07978574712138]},"properties":{"OBJECTID":61,"ICAO":"KOSU","IATA":"OSU","NAME":"Ohio State University Airport","CITY":"Columbus","STATE":"OH","STATE_FIPS":"39","COUNTY":"Franklin","FIPS":"39049","TOT_ENP":93,"ELEV":905,"CNTL_TWR":"Y"}},
{"type":"Feature","geometry":{"type":"Point","coordinates":[-107.72695472298523,39.526312210157414]},"properties":{"OBJECTID":62,"ICAO":"KRIL","IATA":"RIL","NAME":"Garfield County Regional Airport","CITY":"Rifle","STATE":"CO","STATE_FIPS":"08","COUNTY":"Garfield","FIPS":"08045","TOT_ENP":79,"ELEV":5548,"CNTL_TWR":"N"}},
{"type":"Feature","geometry":{"type":"Point","coordinates":[-121.49348515830201,38.51253308170868]},"properties":{"OBJECTID":63,"ICAO":"KSAC","IATA":"SAC","NAME":"Sacramento Executive Airport","CITY":"Sacramento","STATE":"CA","STATE_FIPS":"06","COUNTY":"Sacramento","FIPS":"06067","TOT_ENP":44,"ELEV":24,"CNTL_TWR":"Y"}},
{"type":"Feature","geometry":{"type":"Point","coordinates":[-105.88626129750565,46.427979149746875]},"properties":{"OBJECTID":64,"ICAO":"KMLS","IATA":"MLS","NAME":"Frank Wiley Field Airport","CITY":"Miles City","STATE":"MT","STATE_FIPS":"30","COUNTY":"Custer","FIPS":"30017","TOT_ENP":1033,"ELEV":2630,"CNTL_TWR":"N"}},
{"type":"Feature","geometry":{"type":"Point","coordinates":[-80.71925307891934,32.48061727288564]},"properties":{"OBJECTID":65,"ICAO":"KNBC","IATA":"NBC","NAME":"Beaufort Marine Corps Air Station","CITY":"Beaufort","STATE":"SC","STATE_FIPS":"45","COUNTY":"Beaufort","FIPS":"45013","TOT_ENP":700,"ELEV":37,"CNTL_TWR":"Y"}},
{"type":"Feature","geometry":{"type":"Point","coordinates":[-75.26514081824945,40.13756410721237]},"properties":{"OBJECTID":66,"ICAO":"KLOM","IATA":"LOM","NAME":"Wings Field Airport","CITY":"Philadelphia","STATE":"PA","STATE_FIPS":"42","COUNTY":"Montgomery","FIPS":"42091","TOT_ENP":256,"ELEV":302,"CNTL_TWR":"N"}},
{"type":"Feature","geometry":{"type":"Point","coordinates":[-79.93017229510957,40.35440896723128]},"properties":{"OBJECTID":67,"ICAO":"KAGC","IATA":"AGC","NAME":"Allegheny County Airport","CITY":"Pittsburgh","STATE":"PA","STATE_FIPS":"42","COUNTY":"Allegheny","FIPS":"42003","TOT_ENP":129,"ELEV":1252,"CNTL_TWR":"Y"}},
{"type":"Feature","geometry":{"type":"Point","coordinates":[-89.87028385321236,35.356673524554935]},"properties":{"OBJECTID":68,"ICAO":"KNQA","IATA":"NQA","NAME":"Millington Regional Airport","CITY":"Millington","STATE":"TN","STATE_FIPS":"47","COUNTY":"Shelby","FIPS":"47157","TOT_ENP":116,"ELEV":320,"CNTL_TWR":"Y"}},
{"type":"Feature","geometry":{"type":"Point","coordinates":[-122.42087611217403,48.47089464811904]},"properties":{"OBJECTID":69,"ICAO":"KBVS","IATA":"BVS","NAME":"Skagit Regional Airport","CITY":"Burlington/Mount Vernon","STATE":"WA","STATE_FIPS":"53","COUNTY":"Skagit","FIPS":"53057","TOT_ENP":39,"ELEV":144,"CNTL_TWR":"N"}},
{"type":"Feature","geometry":{"type":"Point","coordinates":[-121.20023595300603,44.09456154075042]},"properties":{"OBJECTID":70,"ICAO":"KBDN","IATA":"BDN","NAME":"Bend Municipal Airport","CITY":"Bend","STATE":"OR","STATE_FIPS":"41","COUNTY":"Deschutes","FIPS":"41017","TOT_ENP":93,"ELEV":3460,"CNTL_TWR":"N"}},
{"type":"Feature","geometry":{"type":"Point","coordinates":[-157.47210454834052,59.35480655351478]},"properties":{"OBJECTID":71,"ICAO":"NONE","IATA":"KEK","NAME":"Ekwok Airport","CITY":"Ekwok","STATE":"AK","STATE_FIPS":"02","COUNTY":"Bristol Bay","FIPS":"02060","TOT_ENP":284,"ELEV":135,"CNTL_TWR":"N"}},
{"type":"Feature","geometry":{"type":"Point","coordinates":[-81.39125620435811,31.151817956061734]},"properties":{"OBJECTID":72,"ICAO":"KSSI","IATA":"SSI","NAME":"Malcolm Mc Kinnon Airport","CITY":"Brunswick","STATE":"GA","STATE_FIPS":"13","COUNTY":"Glynn","FIPS":"13127","TOT_ENP":91,"ELEV":19,"CNTL_TWR":"N"}},
{"type":"Feature","geometry":{"type":"Point","coordinates":[-160.15279734952173,66.76604346154568]},"properties":{"OBJECTID":73,"ICAO":"PASK","IATA":"WLK","NAME":"Roland Norton Memorial Airstrip","CITY":"Selawik","STATE":"AK","STATE_FIPS":"02","COUNTY":"Northwest Arctic","FIPS":"02188","TOT_ENP":4828,"ELEV":360,"CNTL_TWR":"N"}},
{"type":"Feature","geometry":{"type":"Point","coordinates":[-161.16038647880555,56.00753632896971]},"properties":{"OBJECTID":74,"ICAO":"PAOU","IATA":"OUL","NAME":"Nelson Lagoon Airport","CITY":"Nelson Lagoon","STATE":"AK","STATE_FIPS":"02","COUNTY":"Aleutian Islands","FIPS":"02013","TOT_ENP":449,"ELEV":14,"CNTL_TWR":"N"}},
{"type":"Feature","geometry":{"type":"Point","coordinates":[-80.43278072795749,25.64789362860904]},"properties":{"OBJECTID":75,"ICAO":"KTMB","IATA":"TMB","NAME":"Kendall-Tamiami Executive Airport","CITY":"Miami","STATE":"FL","STATE_FIPS":"12","COUNTY":"Miami-Dade","FIPS":"12086","TOT_ENP":82,"ELEV":8,"CNTL_TWR":"Y"}},
{"type":"Feature","geometry":{"type":"Point","coordinates":[-86.47148162000343,30.400066640005605]},"properties":{"OBJECTID":76,"ICAO":"KDTS","IATA":"DTS","NAME":"Destin-Fort Walton Beach Airport","CITY":"Destin","STATE":"FL","STATE_FIPS":"12","COUNTY":"Okaloosa","FIPS":"12091","TOT_ENP":139,"ELEV":23,"CNTL_TWR":"N"}},
{"type":"Feature","geometry":{"type":"Point","coordinates":[-84.52136522540735,33.779145425113086]},"properties":{"OBJECTID":77,"ICAO":"KFTY","IATA":"FTY","NAME":"Fulton County Airport-Brown Field","CITY":"Atlanta","STATE":"GA","STATE_FIPS":"13","COUNTY":"Fulton","FIPS":"13121","TOT_ENP":725,"ELEV":841,"CNTL_TWR":"Y"}},
{"type":"Feature","geometry":{"type":"Point","coordinates":[-144.07622393201495,65.82791932869571]},"properties":{"OBJECTID":78,"ICAO":"PACR","IATA":"CRC","NAME":"Circle City /new/ Airport","CITY":"Circle","STATE":"AK","STATE_FIPS":"02","COUNTY":"Upper Yukon","FIPS":"02290","TOT_ENP":355,"ELEV":613,"CNTL_TWR":"N"}},
{"type":"Feature","geometry":{"type":"Point","coordinates":[-81.33294010202144,28.545469361439302]},"properties":{"OBJECTID":79,"ICAO":"KORL","IATA":"ORL","NAME":"Executive Airport","CITY":"Orlando","STATE":"FL","STATE_FIPS":"12","COUNTY":"Orange","FIPS":"12095","TOT_ENP":170,"ELEV":113,"CNTL_TWR":"Y"}},
{"type":"Feature","geometry":{"type":"Point","coordinates":[-122.28070725491932,38.213198977863044]},"properties":{"OBJECTID":80,"ICAO":"KAPC","IATA":"APC","NAME":"Napa County Airport","CITY":"Napa","STATE":"CA","STATE_FIPS":"06","COUNTY":"Napa","FIPS":"06055","TOT_ENP":316,"ELEV":35,"CNTL_TWR":"Y"}},
{"type":"Feature","geometry":{"type":"Point","coordinates":[-80.00291988895333,32.70086733033827]},"properties":{"OBJECTID":81,"ICAO":"KJZI","IATA":"JZI","NAME":"Charleston Executive Airport","CITY":"Charleston","STATE":"SC","STATE_FIPS":"45","COUNTY":"Charleston","FIPS":"45019","TOT_ENP":73,"ELEV":17,"CNTL_TWR":"N"}},
{"type":"Feature","geometry":{"type":"Point","coordinates":[-96.83645554018238,32.96856479489554]},"properties":{"OBJECTID":82,"ICAO":"KADS","IATA":"ADS","NAME":"Addison Airport","CITY":"Dallas","STATE":"TX","STATE_FIPS":"48","COUNTY":"Dallas","FIPS":"48113","TOT_ENP":185,"ELEV":644,"CNTL_TWR":"Y"}},
{"type":"Feature","geometry":{"type":"Point","coordinates":[-157.35033215277778,61.788076361286926]},"properties":{"OBJECTID":83,"ICAO":"NONE","IATA":"RDV","NAME":"Red Devil Airport","CITY":"Red Devil","STATE":"AK","STATE_FIPS":"02","COUNTY":"Bethel","FIPS":"02050","TOT_ENP":136,"ELEV":174,"CNTL_TWR":"N"}},
{"type":"Feature","geometry":{"type":"Point","coordinates":[-174.20619939314227,52.22058507642453]},"properties":{"OBJECTID":84,"ICAO":"PAAK","IATA":"AKA","NAME":"Atka Airport","CITY":"Atka","STATE":"AK","STATE_FIPS":"02","COUNTY":"Unorganized","FIPS":"02016","TOT_ENP":322,"ELEV":57,"CNTL_TWR":"N"}},
{"type":"Feature","geometry":{"type":"Point","coordinates":[-105.57506556323034,48.09452538697883]},"properties":{"OBJECTID":85,"ICAO":"KOLF","IATA":"OLF","NAME":"L M Clayton Airport","CITY":"Wolf Point","STATE":"MT","STATE_FIPS":"30","COUNTY":"Roosevelt","FIPS":"30085","TOT_ENP":494,"ELEV":1986,"CNTL_TWR":"N"}},
{"type":"Feature","geometry":{"type":"Point","coordinates":[-92.44794706298615,41.106603445395876]},"properties":{"OBJECTID":86,"ICAO":"KOTM","IATA":"OTM","NAME":"Ottumwa Regional Airport","CITY":"Ottumwa","STATE":"IA","STATE_FIPS":"19","COUNTY":"Wapello","FIPS":"19179","TOT_ENP":406,"ELEV":845,"CNTL_TWR":"N"}},
{"type":"Feature","geometry":{"type":"Point","coordinates":[-122.28158696477612,47.906992661463164]},"properties":{"OBJECTID":87,"ICAO":"KPAE","IATA":"PAE","NAME":"Snohomish County (paine Field) Airport","CITY":"Everett","STATE":"WA","STATE_FIPS":"53","COUNTY":"Snohomish","FIPS":"53061","TOT_ENP":514,"ELEV":606,"CNTL_TWR":"Y"}},
{"type":"Feature","geometry":{"type":"Point","coordinates":[-157.00260416339353,58.70208371406909]},"properties":{"OBJECTID":88,"ICAO":"PFWS","IATA":"WSN","NAME":"South Naknek Nr 2 Airport","CITY":"South Naknek","STATE":"AK","STATE_FIPS":"02","COUNTY":"Bristol Bay","FIPS":"02060","TOT_ENP":190,"ELEV":162,"CNTL_TWR":"N"}},
{"type":"Feature","geometry":{"type":"Point","coordinates":[-93.45858280807067,44.82747495169838]},"properties":{"OBJECTID":89,"ICAO":"KFCM","IATA":"FCM","NAME":"Flying Cloud Airport","CITY":"Minneapolis","STATE":"MN","STATE_FIPS":"27","COUNTY":"Hennepin","FIPS":"27053","TOT_ENP":245,"ELEV":906,"CNTL_TWR":"Y"}},
{"type":"Feature","geometry":{"type":"Point","coordinates":[-116.27482483722605,33.74844292092553]},"properties":{"OBJECTID":90,"ICAO":"KUDD","IATA":"UDD","NAME":"Bermuda Dunes Airport","CITY":"Palm Springs","STATE":"CA","STATE_FIPS":"06","COUNTY":"Riverside","FIPS":"06065","TOT_ENP":72,"ELEV":73,"CNTL_TWR":"N"}},
{"type":"Feature","geometry":{"type":"Point","coordinates":[-73.12616820119388,41.163480377614064]},"properties":{"OBJECTID":91,"ICAO":"KBDR","IATA":"BDR","NAME":"Igor I Sikorsky Memorial Airport","CITY":"Bridgeport","STATE":"CT","STATE_FIPS":"09","COUNTY":"Fairfield","FIPS":"09001","TOT_ENP":240,"ELEV":9,"CNTL_TWR":"Y"}},
{"type":"Feature","geometry":{"type":"Point","coordinates":[-83.00986541561366,42.40920218923924]},"properties":{"OBJECTID":92,"ICAO":"KDET","IATA":"DET","NAME":"Coleman A. Young Municipal Airport","CITY":"Detroit","STATE":"MI","STATE_FIPS":"26","COUNTY":"Wayne","FIPS":"26163","TOT_ENP":181,"ELEV":626,"CNTL_TWR":"Y"}},
{"type":"Feature","geometry":{"type":"Point","coordinates":[-106.61473386893215,48.21250728562745]},"properties":{"OBJECTID":93,"ICAO":"KGGW","IATA":"GGW","NAME":"Wokal Field/glasgow International Airport","CITY":"Glasgow","STATE":"MT","STATE_FIPS":"30","COUNTY":"Valley","FIPS":"30105","TOT_ENP":1630,"ELEV":2296,"CNTL_TWR":"N"}},
{"type":"Feature","geometry":{"type":"Point","coordinates":[-94.90971356406635,39.771951097187184]},"properties":{"OBJECTID":94,"ICAO":"KSTJ","IATA":"STJ","NAME":"Rosecrans Memorial Airport","CITY":"St Joseph","STATE":"MO","STATE_FIPS":"29","COUNTY":"Buchanan","FIPS":"29021","TOT_ENP":149,"ELEV":826,"CNTL_TWR":"Y"}},
{"type":"Feature","geometry":{"type":"Point","coordinates":[-149.508329175915,61.41608471263788]},"properties":{"OBJECTID":95,"ICAO":"PABV","IATA":"BCV","NAME":"Birchwood Airport","CITY":"Birchwood","STATE":"AK","STATE_FIPS":"02","COUNTY":"Anchorage","FIPS":"02020","TOT_ENP":450,"ELEV":83,"CNTL_TWR":"N"}},
{"type":"Feature","geometry":{"type":"Point","coordinates":[-106.08943292164503,35.61711477597606]},"properties":{"OBJECTID":96,"ICAO":"KSAF","IATA":"SAF","NAME":"Santa Fe Municipal Airport","CITY":"Santa Fe","STATE":"NM","STATE_FIPS":"35","COUNTY":"Santa Fe","FIPS":"35049","TOT_ENP":43807,"ELEV":6348,"CNTL_TWR":"Y"}},
{"type":"Feature","geometry":{"type":"Point","coordinates":[-154.35845924179338,63.0185607711378]},"properties":{"OBJECTID":97,"ICAO":"PAFS","IATA":"FSP","NAME":"Nikolai Airport","CITY":"Nikolai","STATE":"AK","STATE_FIPS":"02","COUNTY":"Yukon-Koyukuk","FIPS":"02290","TOT_ENP":367,"ELEV":441,"CNTL_TWR":"N"}},
{"type":"Feature","geometry":{"type":"Point","coordinates":[-97.22111900021713,37.747589607266605]},"properties":{"OBJECTID":98,"ICAO":"KAAO","IATA":"AAO","NAME":"Colonel James Jabara Airport","CITY":"Wichita","STATE":"KS","STATE_FIPS":"20","COUNTY":"Sedgwick","FIPS":"20173","TOT_ENP":79,"ELEV":1421,"CNTL_TWR":"N"}},
{"type":"Feature","geometry":{"type":"Point","coordinates":[-85.85811562771988,33.58817333665155]},"properties":{"OBJECTID":99,"ICAO":"KANB","IATA":"ANB","NAME":"Anniston Metropolitan Airport","CITY":"Anniston","STATE":"AL","STATE_FIPS":"01","COUNTY":"Calhoun","FIPS":"01015","TOT_ENP":494,"ELEV":612,"CNTL_TWR":"N"}},
{"type":"Feature","geometry":{"type":"Point","coordinates":[-108.7917874908457,35.08323250408006]},"properties":{"OBJECTID":100,"ICAO":"KZUN","IATA":"ZUN","NAME":"Black Rock Airport","CITY":"Zuni Pueblo","STATE":"NM","STATE_FIPS":"35","COUNTY":"McKinley","FIPS":"35031","TOT_ENP":441,"ELEV":6454,"CNTL_TWR":"N"}},
{"type":"Feature","geometry":{"type":"Point","coordinates":[-122.81065908671354,48.0538145751521]},"properties":{"OBJECTID":101,"ICAO":"K0S9","IATA":"0S9","NAME":"Jefferson County International Airport","CITY":"Port Townsend","STATE":"WA","STATE_FIPS":"53","COUNTY":"Jefferson","FIPS":"53031","TOT_ENP":33,"ELEV":108,"CNTL_TWR":"N"}},
{"type":"Feature","geometry":{"type":"Point","coordinates":[-93.54799713038983,38.73029796272226]},"properties":{"OBJECTID":102,"ICAO":"KSZL","IATA":"SZL","NAME":"Whiteman Air Force Base","CITY":"Knob Noster","STATE":"MO","STATE_FIPS":"29","COUNTY":"Johnson","FIPS":"29101","TOT_ENP":330,"ELEV":870,"CNTL_TWR":"Y"}},
{"type":"Feature","geometry":{"type":"Point","coordinates":[-101.35804957232108,48.41577677104323]},"properties":{"OBJECTID":103,"ICAO":"KMIB","IATA":"MIB","NAME":"Minot Air Force Base","CITY":"Minot","STATE":"ND","STATE_FIPS":"38","COUNTY":"Ward","FIPS":"38101","TOT_ENP":893,"ELEV":1667,"CNTL_TWR":"Y"}},
{"type":"Feature","geometry":{"type":"Point","coordinates":[-75.1481687813095,40.19984111737136]},"properties":{"OBJECTID":104,"ICAO":"KNXX","IATA":"NXX","NAME":"Willow Grove Naval Air Station Joint Reserve Base","CITY":"Willow Grove","STATE":"PA","STATE_FIPS":"42","COUNTY":"Philadelphia","FIPS":"42101","TOT_ENP":327,"ELEV":358,"CNTL_TWR":"Y"}},
{"type":"Feature","geometry":{"type":"Point","coordinates":[-90.02825559846673,30.042394455399005]},"properties":{"OBJECTID":105,"ICAO":"KNEW","IATA":"NEW","NAME":"Lakefront Airport","CITY":"New Orleans","STATE":"LA","STATE_FIPS":"22","COUNTY":"Orleans","FIPS":"22071","TOT_ENP":113,"ELEV":8,"CNTL_TWR":"Y"}},
{"type":"Feature","geometry":{"type":"Point","coordinates":[-110.88317770535832,32.16650497049852]},"properties":{"OBJECTID":106,"ICAO":"KDMA","IATA":"DMA","NAME":"Davis Monthan Air Force Base","CITY":"Tucson","STATE":"AZ","STATE_FIPS":"04","COUNTY":"Pima","FIPS":"04019","TOT_ENP":304,"ELEV":2704,"CNTL_TWR":"Y"}},
{"type":"Feature","geometry":{"type":"Point","coordinates":[-118.05144115712437,33.790036827911024]},"properties":{"OBJECTID":107,"ICAO":"KSLI","IATA":"SLI","NAME":"Los Alamitos Army Airfield","CITY":"Los Alamitos","STATE":"CA","STATE_FIPS":"06","COUNTY":"Orange","FIPS":"06059","TOT_ENP":411,"ELEV":32,"CNTL_TWR":"Y"}},
{"type":"Feature","geometry":{"type":"Point","coordinates":[-160.27506316591106,59.07452513918628]},"properties":{"OBJECTID":108,"ICAO":"NONE","IATA":"A63","NAME":"Twin Hills Airport","CITY":"Twin Hills","STATE":"AK","STATE_FIPS":"02","COUNTY":"Bethel","FIPS":"02070","TOT_ENP":199,"ELEV":82,"CNTL_TWR":"N"}},
{"type":"Feature","geometry":{"type":"Point","coordinates":[-116.15967878025032,33.62667193156534]},"properties":{"OBJECTID":109,"ICAO":"KTRM","IATA":"TRM","NAME":"Jacqueline Cochran Regional Airport","CITY":"Palm Springs","STATE":"CA","STATE_FIPS":"06","COUNTY":"Riverside","FIPS":"06065","TOT_ENP":68,"ELEV":-115,"CNTL_TWR":"N"}},
{"type":"Feature","geometry":{"type":"Point","coordinates":[-155.66812149695113,20.001330475281748]},"properties":{"OBJECTID":110,"ICAO":"PHMU","IATA":"MUE","NAME":"Waimea-Kohala Airport","CITY":"Kamuela","STATE":"HI","STATE_FIPS":"15","COUNTY":"Hawaii","FIPS":"15001","TOT_ENP":47,"ELEV":2671,"CNTL_TWR":"N"}},
{"type":"Feature","geometry":{"type":"Point","coordinates":[-75.01058473254392,40.08195208016798]},"properties":{"OBJECTID":111,"ICAO":"KPNE","IATA":"PNE","NAME":"Northeast Philadelphia Airport","CITY":"Philadelphia","STATE":"PA","STATE_FIPS":"42","COUNTY":"Philadelphia","FIPS":"42101","TOT_ENP":312,"ELEV":120,"CNTL_TWR":"Y"}},
{"type":"Feature","geometry":{"type":"Point","coordinates":[-105.9905927199224,32.83994934931877]},"properties":{"OBJECTID":112,"ICAO":"KALM","IATA":"ALM","NAME":"Alamogordo-White Sands Regional Airport","CITY":"Alamogordo","STATE":"NM","STATE_FIPS":"35","COUNTY":"Otero","FIPS":"35035","TOT_ENP":369,"ELEV":4200,"CNTL_TWR":"N"}},
{"type":"Feature","geometry":{"type":"Point","coordinates":[-72.71562113663441,42.157739592750374]},"properties":{"OBJECTID":113,"ICAO":"KBAF","IATA":"BAF","NAME":"Barnes Municipal Airport","CITY":"Westfield/Springfield","STATE":"MA","STATE_FIPS":"25","COUNTY":"Hampden","FIPS":"25013","TOT_ENP":366,"ELEV":271,"CNTL_TWR":"Y"}},
{"type":"Feature","geometry":{"type":"Point","coordinates":[-71.50227880377957,43.2027307915011]},"properties":{"OBJECTID":114,"ICAO":"KCON","IATA":"CON","NAME":"Concord Municipal Airport","CITY":"Concord","STATE":"NH","STATE_FIPS":"33","COUNTY":"Merrimack","FIPS":"33013","TOT_ENP":115,"ELEV":342,"CNTL_TWR":"N"}},
{"type":"Feature","geometry":{"type":"Point","coordinates":[-72.63179001106823,40.8436633200817]},"properties":{"OBJECTID":115,"ICAO":"KFOK","IATA":"FOK","NAME":"Francis S Gabreski Airport","CITY":"Westhampton Beach","STATE":"NY","STATE_FIPS":"36","COUNTY":"Suffolk","FIPS":"36103","TOT_ENP":147,"ELEV":67,"CNTL_TWR":"Y"}},
{"type":"Feature","geometry":{"type":"Point","coordinates":[-89.57075788085001,37.2253239219973]},"properties":{"OBJECTID":116,"ICAO":"KCGI","IATA":"CGI","NAME":"Cape Girardeau Regional Airport","CITY":"Cape Girardeau","STATE":"MO","STATE_FIPS":"29","COUNTY":"Scott","FIPS":"29201","TOT_ENP":4862,"ELEV":342,"CNTL_TWR":"Y"}},
{"type":"Feature","geometry":{"type":"Point","coordinates":[-157.16590406193578,61.700518434571165]},"properties":{"OBJECTID":117,"ICAO":"PASL","IATA":"SLQ","NAME":"Sleetmute Airport","CITY":"Sleetmute","STATE":"AK","STATE_FIPS":"02","COUNTY":"Bethel","FIPS":"02050","TOT_ENP":386,"ELEV":190,"CNTL_TWR":"N"}},
{"type":"Feature","geometry":{"type":"Point","coordinates":[-145.82406544300298,66.27399800509392]},"properties":{"OBJECTID":118,"ICAO":"NONE","IATA":"Z91","NAME":"Birch Creek Airport","CITY":"Birch Creek","STATE":"AK","STATE_FIPS":"02","COUNTY":"Fairbanks North Star","FIPS":"02290","TOT_ENP":361,"ELEV":450,"CNTL_TWR":"N"}},
{"type":"Feature","geometry":{"type":"Point","coordinates":[-91.54814283317126,41.639774595488234]},"properties":{"OBJECTID":119,"ICAO":"KIOW","IATA":"IOW","NAME":"Iowa City Municipal Airport","CITY":"Iowa City","STATE":"IA","STATE_FIPS":"19","COUNTY":"Johnson","FIPS":"19103","TOT_ENP":52,"ELEV":668,"CNTL_TWR":"N"}},
{"type":"Feature","geometry":{"type":"Point","coordinates":[-122.65597311584497,48.35184663966214]},"properties":{"OBJECTID":120,"ICAO":"KNUW","IATA":"NUW","NAME":"Whidbey Island Naval Air Station /ault Field/","CITY":"Oak Harbor","STATE":"WA","STATE_FIPS":"53","COUNTY":"Island","FIPS":"53029","TOT_ENP":707,"ELEV":47,"CNTL_TWR":"Y"}},
{"type":"Feature","geometry":{"type":"Point","coordinates":[-117.65581707788039,47.61506414070618]},"properties":{"OBJECTID":121,"ICAO":"KSKA","IATA":"SKA","NAME":"Fairchild Air Force Base","CITY":"Spokane","STATE":"WA","STATE_FIPS":"53","COUNTY":"Spokane","FIPS":"53063","TOT_ENP":235,"ELEV":2461,"CNTL_TWR":"Y"}},
{"type":"Feature","geometry":{"type":"Point","coordinates":[-151.19138954261211,61.9652963623667]},"properties":{"OBJECTID":122,"ICAO":"PASW","IATA":"SKW","NAME":"Skwentna Airport","CITY":"Skwentna","STATE":"AK","STATE_FIPS":"02","COUNTY":"Matanuska-Susitna","FIPS":"02170","TOT_ENP":92,"ELEV":148,"CNTL_TWR":"N"}},
{"type":"Feature","geometry":{"type":"Point","coordinates":[-158.52941017472008,58.83369447509676]},"properties":{"OBJECTID":123,"ICAO":"PFCL","IATA":"CLP","NAME":"Clarks Point Airport","CITY":"Clarks Point","STATE":"AK","STATE_FIPS":"02","COUNTY":"Bristol Bay","FIPS":"02060","TOT_ENP":454,"ELEV":80,"CNTL_TWR":"N"}},
{"type":"Feature","geometry":{"type":"Point","coordinates":[-114.05281914055388,46.525117429812894]},"properties":{"OBJECTID":124,"ICAO":"K32S","IATA":"32S","NAME":"Stevensville Airport","CITY":"Stevensville","STATE":"MT","STATE_FIPS":"30","COUNTY":"Ravalli","FIPS":"30081","TOT_ENP":590,"ELEV":3610,"CNTL_TWR":"N"}},
{"type":"Feature","geometry":{"type":"Point","coordinates":[-82.2241183733189,29.171882464926625]},"properties":{"OBJECTID":125,"ICAO":"KOCF","IATA":"OCF","NAME":"Ocala International-Jim Taylor Field","CITY":"Ocala","STATE":"FL","STATE_FIPS":"12","COUNTY":"Marion","FIPS":"12083","TOT_ENP":204,"ELEV":90,"CNTL_TWR":"N"}},
{"type":"Feature","geometry":{"type":"Point","coordinates":[-86.52008794627994,36.00897882602652]},"properties":{"OBJECTID":126,"ICAO":"KMQY","IATA":"MQY","NAME":"Smyrna Airport","CITY":"Smyrna","STATE":"TN","STATE_FIPS":"47","COUNTY":"Rutherford","FIPS":"47149","TOT_ENP":1187,"ELEV":543,"CNTL_TWR":"Y"}},
{"type":"Feature","geometry":{"type":"Point","coordinates":[-163.41034076230724,54.8474461029042]},"properties":{"OBJECTID":127,"ICAO":"PAKF","IATA":"KFP","NAME":"False Pass Airport","CITY":"False Pass","STATE":"AK","STATE_FIPS":"02","COUNTY":"Aleutian Islands","FIPS":"02013","TOT_ENP":321,"ELEV":20,"CNTL_TWR":"N"}},
{"type":"Feature","geometry":{"type":"Point","coordinates":[-154.453903672847,57.5660871530128]},"properties":{"OBJECTID":128,"ICAO":"PAKY","IATA":"KYK","NAME":"Karluk Airport","CITY":"Karluk","STATE":"AK","STATE_FIPS":"02","COUNTY":"Kodiak Island","FIPS":"02150","TOT_ENP":397,"ELEV":137,"CNTL_TWR":"N"}},
{"type":"Feature","geometry":{"type":"Point","coordinates":[-80.22129672845455,27.181705028214026]},"properties":{"OBJECTID":129,"ICAO":"KSUA","IATA":"SUA","NAME":"Witham Field Airport","CITY":"Stuart","STATE":"FL","STATE_FIPS":"12","COUNTY":"Martin","FIPS":"12085","TOT_ENP":480,"ELEV":16,"CNTL_TWR":"Y"}},
{"type":"Feature","geometry":{"type":"Point","coordinates":[-92.81328450940634,33.22097798426256]},"properties":{"OBJECTID":130,"ICAO":"KELD","IATA":"ELD","NAME":"South Arkansas Regional At Goodwin Field","CITY":"El Dorado","STATE":"AR","STATE_FIPS":"05","COUNTY":"Union","FIPS":"05139","TOT_ENP":1222,"ELEV":277,"CNTL_TWR":"N"}},
{"type":"Feature","geometry":{"type":"Point","coordinates":[-88.24820892573473,41.90695181720861]},"properties":{"OBJECTID":131,"ICAO":"KDPA","IATA":"DPA","NAME":"Dupage Airport","CITY":"Chicago/West Chicago","STATE":"IL","STATE_FIPS":"17","COUNTY":"Du Page","FIPS":"17043","TOT_ENP":300,"ELEV":759,"CNTL_TWR":"Y"}},
{"type":"Feature","geometry":{"type":"Point","coordinates":[-105.11720415998639,39.90881240995839]},"properties":{"OBJECTID":132,"ICAO":"KBJC","IATA":"BJC","NAME":"Rocky Mountain Metropolitan Airport","CITY":"Denver","STATE":"CO","STATE_FIPS":"08","COUNTY":"Jefferson","FIPS":"08059","TOT_ENP":269,"ELEV":5673,"CNTL_TWR":"Y"}},
{"type":"Feature","geometry":{"type":"Point","coordinates":[-76.02174134544424,43.99193079003243]},"properties":{"OBJECTID":133,"ICAO":"KART","IATA":"ART","NAME":"Watertown International Airport","CITY":"Watertown","STATE":"NY","STATE_FIPS":"36","COUNTY":"Jefferson","FIPS":"36045","TOT_ENP":2203,"ELEV":325,"CNTL_TWR":"N"}},
{"type":"Feature","geometry":{"type":"Point","coordinates":[-86.25144915936454,40.03067459415371]},"properties":{"OBJECTID":134,"ICAO":"KTYQ","IATA":"TYQ","NAME":"Indianapolis Executive Airport","CITY":"Indianapolis","STATE":"IN","STATE_FIPS":"18","COUNTY":"Boone","FIPS":"18011","TOT_ENP":36,"ELEV":922,"CNTL_TWR":"N"}},
{"type":"Feature","geometry":{"type":"Point","coordinates":[-150.20390655683113,67.25218015932916]},"properties":{"OBJECTID":135,"ICAO":"PACX","IATA":"CXF","NAME":"Coldfoot Airport","CITY":"Coldfoot","STATE":"AK","STATE_FIPS":"02","COUNTY":"Upper Yukon","FIPS":"02290","TOT_ENP":212,"ELEV":1042,"CNTL_TWR":"N"}},
{"type":"Feature","geometry":{"type":"Point","coordinates":[-82.70939275649118,34.49458963470215]},"properties":{"OBJECTID":136,"ICAO":"KAND","IATA":"AND","NAME":"Anderson Regional Airport","CITY":"Anderson","STATE":"SC","STATE_FIPS":"45","COUNTY":"Anderson","FIPS":"45007","TOT_ENP":293,"ELEV":782,"CNTL_TWR":"N"}},
{"type":"Feature","geometry":{"type":"Point","coordinates":[-149.05439618159153,66.0170624685432]},"properties":{"OBJECTID":137,"ICAO":"NONE","IATA":"SVS","NAME":"Stevens Village Airport","CITY":"Stevens Village","STATE":"AK","STATE_FIPS":"02","COUNTY":"Upper Yukon","FIPS":"02290","TOT_ENP":1228,"ELEV":329,"CNTL_TWR":"N"}},
{"type":"Feature","geometry":{"type":"Point","coordinates":[-84.04610649337604,39.8259756778736]},"properties":{"OBJECTID":138,"ICAO":"KFFO","IATA":"FFO","NAME":"Wright-Patterson Air Force Base","CITY":"Dayton","STATE":"OH","STATE_FIPS":"39","COUNTY":"Greene","FIPS":"39057","TOT_ENP":164,"ELEV":823,"CNTL_TWR":"Y"}},
{"type":"Feature","geometry":{"type":"Point","coordinates":[-158.53428683284778,56.31104768749367]},"properties":{"OBJECTID":139,"ICAO":"NONE","IATA":"KCL","NAME":"Chignik Lagoon Airport","CITY":"Chignik Lagoon","STATE":"AK","STATE_FIPS":"02","COUNTY":"Lake and Peninsula","FIPS":"02164","TOT_ENP":648,"ELEV":25,"CNTL_TWR":"N"}},
{"type":"Feature","geometry":{"type":"Point","coordinates":[-115.67167865585134,32.82917184892176]},"properties":{"OBJECTID":140,"ICAO":"KNJK","IATA":"NJK","NAME":"El Centro Naf Airport","CITY":"El Centro","STATE":"CA","STATE_FIPS":"06","COUNTY":"Imperial","FIPS":"06025","TOT_ENP":293,"ELEV":-42,"CNTL_TWR":"Y"}},
{"type":"Feature","geometry":{"type":"Point","coordinates":[-109.06739958379029,35.652061563826805]},"properties":{"OBJECTID":141,"ICAO":"KRQE","IATA":"RQE","NAME":"Window Rock Airport","CITY":"Window Rock","STATE":"AZ","STATE_FIPS":"04","COUNTY":"Apache","FIPS":"04001","TOT_ENP":561,"ELEV":6742,"CNTL_TWR":"N"}},
{"type":"Feature","geometry":{"type":"Point","coordinates":[-86.41967196447183,36.96453502607335]},"properties":{"OBJECTID":142,"ICAO":"KBWG","IATA":"BWG","NAME":"Bowling Green-Warren County Regional Airport","CITY":"Bowling Green","STATE":"KY","STATE_FIPS":"21","COUNTY":"Warren","FIPS":"21227","TOT_ENP":409,"ELEV":547,"CNTL_TWR":"N"}},
{"type":"Feature","geometry":{"type":"Point","coordinates":[-109.46670629900973,47.04925690593109]},"properties":{"OBJECTID":143,"ICAO":"KLWT","IATA":"LWT","NAME":"Lewistown Municipal Airport","CITY":"Lewistown","STATE":"MT","STATE_FIPS":"30","COUNTY":"Fergus","FIPS":"30027","TOT_ENP":704,"ELEV":4170,"CNTL_TWR":"N"}},
{"type":"Feature","geometry":{"type":"Point","coordinates":[-75.46550222484984,44.68186992397267]},"properties":{"OBJECTID":144,"ICAO":"KOGS","IATA":"OGS","NAME":"Ogdensburg International Airport","CITY":"Ogdensburg","STATE":"NY","STATE_FIPS":"36","COUNTY":"St Lawrence","FIPS":"36089","TOT_ENP":2329,"ELEV":297,"CNTL_TWR":"N"}},
{"type":"Feature","geometry":{"type":"Point","coordinates":[-169.66375476349015,56.577352074124974]},"properties":{"OBJECTID":145,"ICAO":"PAPB","IATA":"PBV","NAME":"Saint George Airport","CITY":"St George","STATE":"AK","STATE_FIPS":"02","COUNTY":"Bethel","FIPS":"02016","TOT_ENP":643,"ELEV":125,"CNTL_TWR":"N"}},
{"type":"Feature","geometry":{"type":"Point","coordinates":[-141.1496367316048,64.77808589773724]},"properties":{"OBJECTID":146,"ICAO":"PAEG","IATA":"EAA","NAME":"Eagle Airport","CITY":"Eagle","STATE":"AK","STATE_FIPS":"02","COUNTY":"Southeast Fairbanks","FIPS":"02240","TOT_ENP":734,"ELEV":908,"CNTL_TWR":"N"}},
{"type":"Feature","geometry":{"type":"Point","coordinates":[-82.52117041886191,27.849338145071272]},"properties":{"OBJECTID":147,"ICAO":"KMCF","IATA":"MCF","NAME":"Mac Dill Air Force Base","CITY":"Tampa","STATE":"FL","STATE_FIPS":"12","COUNTY":"Hillsborough","FIPS":"12057","TOT_ENP":1089,"ELEV":14,"CNTL_TWR":"Y"}},
{"type":"Feature","geometry":{"type":"Point","coordinates":[-92.14654844556969,34.916775368475214]},"properties":{"OBJECTID":148,"ICAO":"KLRF","IATA":"LRF","NAME":"Little Rock Air Force Base","CITY":"Jacksonville","STATE":"AR","STATE_FIPS":"05","COUNTY":"Pulaski","FIPS":"05119","TOT_ENP":789,"ELEV":311,"CNTL_TWR":"Y"}},
{"type":"Feature","geometry":{"type":"Point","coordinates":[-97.31881366773217,32.98764477515721]},"properties":{"OBJECTID":149,"ICAO":"KAFW","IATA":"AFW","NAME":"Fort Worth Alliance Airport","CITY":"Fort Worth","STATE":"TX","STATE_FIPS":"48","COUNTY":"Tarrant","FIPS":"48439","TOT_ENP":1518,"ELEV":722,"CNTL_TWR":"Y"}},
{"type":"Feature","geometry":{"type":"Point","coordinates":[-87.30758841890724,39.451479426358446]},"properties":{"OBJECTID":150,"ICAO":"KHUF","IATA":"HUF","NAME":"Terre Haute International-Hulman Field","CITY":"Terre Haute","STATE":"IN","STATE_FIPS":"18","COUNTY":"Vigo","FIPS":"18167","TOT_ENP":491,"ELEV":589,"CNTL_TWR":"Y"}},
{"type":"Feature","geometry":{"type":"Point","coordinates":[-150.64363904142579,66.81405715159832]},"properties":{"OBJECTID":151,"ICAO":"PAPR","IATA":"PPC","NAME":"Prospect Creek Airport","CITY":"Prospect Creek","STATE":"AK","STATE_FIPS":"02","COUNTY":"Upper Yukon","FIPS":"02290","TOT_ENP":639,"ELEV":1095,"CNTL_TWR":"N"}},
{"type":"Feature","geometry":{"type":"Point","coordinates":[-116.56015306018276,48.29953429278385]},"properties":{"OBJECTID":152,"ICAO":"KSZT","IATA":"SZT","NAME":"Sandpoint Airport","CITY":"Sandpoint","STATE":"ID","STATE_FIPS":"16","COUNTY":"Bonner","FIPS":"16017","TOT_ENP":138,"ELEV":2131,"CNTL_TWR":"N"}},
{"type":"Feature","geometry":{"type":"Point","coordinates":[-118.83876262538365,37.62406117729273]},"properties":{"OBJECTID":153,"ICAO":"KMMH","IATA":"MMH","NAME":"Mammoth Yosemite Airport","CITY":"Mammoth Lakes","STATE":"CA","STATE_FIPS":"06","COUNTY":"Mono","FIPS":"06051","TOT_ENP":19814,"ELEV":7135,"CNTL_TWR":"N"}},
{"type":"Feature","geometry":{"type":"Point","coordinates":[-80.41794680213258,27.655561151391396]},"properties":{"OBJECTID":154,"ICAO":"KVRB","IATA":"VRB","NAME":"Vero Beach Municipal Airport","CITY":"Vero Beach","STATE":"FL","STATE_FIPS":"12","COUNTY":"Indian River","FIPS":"12061","TOT_ENP":228,"ELEV":24,"CNTL_TWR":"Y"}},
{"type":"Feature","geometry":{"type":"Point","coordinates":[-154.12385498188868,59.789611079631925]},"properties":{"OBJECTID":155,"ICAO":"NONE","IATA":"4K0","NAME":"Pedro Bay Airport","CITY":"Pedro Bay","STATE":"AK","STATE_FIPS":"02","COUNTY":"Bristol Bay","FIPS":"02060","TOT_ENP":541,"ELEV":45,"CNTL_TWR":"N"}},
{"type":"Feature","geometry":{"type":"Point","coordinates":[-79.8603653310646,41.37788214310507]},"properties":{"OBJECTID":156,"ICAO":"KFKL","IATA":"FKL","NAME":"Venango Regional Airport","CITY":"Franklin","STATE":"PA","STATE_FIPS":"42","COUNTY":"Venango","FIPS":"42121","TOT_ENP":1380,"ELEV":1540,"CNTL_TWR":"N"}},
{"type":"Feature","geometry":{"type":"Point","coordinates":[-92.5449239943377,40.093507262619596]},"properties":{"OBJECTID":157,"ICAO":"KIRK","IATA":"IRK","NAME":"Kirksville Regional Airport","CITY":"Kirksville","STATE":"MO","STATE_FIPS":"29","COUNTY":"Adair","FIPS":"29001","TOT_ENP":2127,"ELEV":966,"CNTL_TWR":"N"}},
{"type":"Feature","geometry":{"type":"Point","coordinates":[-115.13445581975418,35.97286624423617]},"properties":{"OBJECTID":158,"ICAO":"KHND","IATA":"HND","NAME":"Henderson Executive Airport","CITY":"Las Vegas","STATE":"NV","STATE_FIPS":"32","COUNTY":"Clark","FIPS":"32003","TOT_ENP":13272,"ELEV":2492,"CNTL_TWR":"Y"}},
{"type":"Feature","geometry":{"type":"Point","coordinates":[-111.85159487706568,41.791228175583626]},"properties":{"OBJECTID":159,"ICAO":"KLGU","IATA":"LGU","NAME":"Logan-Cache Airport","CITY":"Logan","STATE":"UT","STATE_FIPS":"49","COUNTY":"Cache","FIPS":"49005","TOT_ENP":1176,"ELEV":4457,"CNTL_TWR":"N"}},
{"type":"Feature","geometry":{"type":"Point","coordinates":[-158.13494011898013,61.86786126941371]},"properties":{"OBJECTID":160,"ICAO":"NONE","IATA":"CJX","NAME":"Crooked Creek Airport","CITY":"Crooked Creek","STATE":"AK","STATE_FIPS":"02","COUNTY":"Bethel","FIPS":"02050","TOT_ENP":549,"ELEV":178,"CNTL_TWR":"N"}},
{"type":"Feature","geometry":{"type":"Point","coordinates":[-97.44154066645422,32.769191688232524]},"properties":{"OBJECTID":161,"ICAO":"KNFW","IATA":"NFW","NAME":"Fort Worth Naval Air Station Jrb/carswell Field","CITY":"Fort Worth","STATE":"TX","STATE_FIPS":"48","COUNTY":"Tarrant","FIPS":"48439","TOT_ENP":829,"ELEV":650,"CNTL_TWR":"Y"}},
{"type":"Feature","geometry":{"type":"Point","coordinates":[-111.72337264736825,40.21919999445868]},"properties":{"OBJECTID":162,"ICAO":"KPVU","IATA":"PVU","NAME":"Provo Municipal Airport","CITY":"Provo","STATE":"UT","STATE_FIPS":"49","COUNTY":"Utah","FIPS":"49049","TOT_ENP":1124,"ELEV":4497,"CNTL_TWR":"Y"}},
{"type":"Feature","geometry":{"type":"Point","coordinates":[-84.70358818243045,45.01364756692402]},"properties":{"OBJECTID":163,"ICAO":"KGLR","IATA":"GLR","NAME":"Gaylord Regional Airport","CITY":"Gaylord","STATE":"MI","STATE_FIPS":"26","COUNTY":"Otsego","FIPS":"26137","TOT_ENP":642,"ELEV":1328,"CNTL_TWR":"N"}},
{"type":"Feature","geometry":{"type":"Point","coordinates":[-97.36245167231164,32.81978372865905]},"properties":{"OBJECTID":164,"ICAO":"KFTW","IATA":"FTW","NAME":"Fort Worth Meacham International Airport","CITY":"Fort Worth","STATE":"TX","STATE_FIPS":"48","COUNTY":"Tarrant","FIPS":"48439","TOT_ENP":809,"ELEV":710,"CNTL_TWR":"Y"}},
{"type":"Feature","geometry":{"type":"Point","coordinates":[-93.56650744240125,41.691146453313706]},"properties":{"OBJECTID":165,"ICAO":"KIKV","IATA":"IKV","NAME":"Ankeny Regional Airport","CITY":"Ankeny","STATE":"IA","STATE_FIPS":"19","COUNTY":"Polk","FIPS":"19153","TOT_ENP":33,"ELEV":910,"CNTL_TWR":"N"}},
{"type":"Feature","geometry":{"type":"Point","coordinates":[-85.57650436249548,30.070005605714243]},"properties":{"OBJECTID":166,"ICAO":"KPAM","IATA":"PAM","NAME":"Tyndall Air Force Base","CITY":"Panama City","STATE":"FL","STATE_FIPS":"12","COUNTY":"Bay","FIPS":"12005","TOT_ENP":1253,"ELEV":17,"CNTL_TWR":"Y"}},
{"type":"Feature","geometry":{"type":"Point","coordinates":[-74.12458446335796,40.18678614184989]},"properties":{"OBJECTID":167,"ICAO":"KBLM","IATA":"BLM","NAME":"Monmouth Executive Airport","CITY":"Belmar/Farmingdale","STATE":"NJ","STATE_FIPS":"34","COUNTY":"Monmouth","FIPS":"34025","TOT_ENP":68,"ELEV":153,"CNTL_TWR":"N"}},
{"type":"Feature","geometry":{"type":"Point","coordinates":[-155.90179459040453,59.324042801396956]},"properties":{"OBJECTID":168,"ICAO":"PAIG","IATA":"IGG","NAME":"Igiugig Airport","CITY":"Igiugig","STATE":"AK","STATE_FIPS":"02","COUNTY":"Bristol Bay","FIPS":"02060","TOT_ENP":594,"ELEV":90,"CNTL_TWR":"N"}},
{"type":"Feature","geometry":{"type":"Point","coordinates":[-143.73995779490252,66.64502437386113]},"properties":{"OBJECTID":169,"ICAO":"PACI","IATA":"CIK","NAME":"Chalkyitsik Airport","CITY":"Chalkyitsik","STATE":"AK","STATE_FIPS":"02","COUNTY":"Upper Yukon","FIPS":"02290","TOT_ENP":777,"ELEV":544,"CNTL_TWR":"N"}},
{"type":"Feature","geometry":{"type":"Point","coordinates":[-158.37325685760183,56.31146267347083]},"properties":{"OBJECTID":170,"ICAO":"PAJC","IATA":"AJC","NAME":"Chignik Airport","CITY":"Chignik","STATE":"AK","STATE_FIPS":"02","COUNTY":"Lake and Peninsula","FIPS":"02164","TOT_ENP":854,"ELEV":18,"CNTL_TWR":"N"}},
{"type":"Feature","geometry":{"type":"Point","coordinates":[-118.45131821765426,34.01583784362276]},"properties":{"OBJECTID":171,"ICAO":"KSMO","IATA":"SMO","NAME":"Santa Monica Municipal Airport","CITY":"Santa Monica","STATE":"CA","STATE_FIPS":"06","COUNTY":"Los Angeles","FIPS":"06037","TOT_ENP":547,"ELEV":177,"CNTL_TWR":"Y"}},
{"type":"Feature","geometry":{"type":"Point","coordinates":[-101.69900128026836,39.37062856466838]},"properties":{"OBJECTID":172,"ICAO":"KGLD","IATA":"GLD","NAME":"Renner Field /goodland Municipal/ Airport","CITY":"Goodland","STATE":"KS","STATE_FIPS":"20","COUNTY":"Sherman","FIPS":"20181","TOT_ENP":141,"ELEV":3656,"CNTL_TWR":"N"}},
{"type":"Feature","geometry":{"type":"Point","coordinates":[-75.46600179130212,39.12950791037815]},"properties":{"OBJECTID":173,"ICAO":"KDOV","IATA":"DOV","NAME":"Dover Air Force Base","CITY":"Dover","STATE":"DE","STATE_FIPS":"10","COUNTY":"Kent","FIPS":"10001","TOT_ENP":732,"ELEV":24,"CNTL_TWR":"Y"}},
{"type":"Feature","geometry":{"type":"Point","coordinates":[-80.2783917262206,25.90700471664485]},"properties":{"OBJECTID":174,"ICAO":"KOPF","IATA":"OPF","NAME":"Opa- Locka Executive Airport","CITY":"Miami","STATE":"FL","STATE_FIPS":"12","COUNTY":"Miami-dade","FIPS":"12086","TOT_ENP":668,"ELEV":8,"CNTL_TWR":"Y"}},
{"type":"Feature","geometry":{"type":"Point","coordinates":[-103.10357725524642,44.14510113503263]},"properties":{"OBJECTID":175,"ICAO":"KRCA","IATA":"RCA","NAME":"Ellsworth Air Force Base","CITY":"Rapid City","STATE":"SD","STATE_FIPS":"46","COUNTY":"Pennington","FIPS":"46103","TOT_ENP":389,"ELEV":3276,"CNTL_TWR":"Y"}},
{"type":"Feature","geometry":{"type":"Point","coordinates":[-77.96059437064486,35.339392025186896]},"properties":{"OBJECTID":176,"ICAO":"KGSB","IATA":"GSB","NAME":"Seymour Johnson Air Force Base","CITY":"Goldsboro","STATE":"NC","STATE_FIPS":"37","COUNTY":"Wayne","FIPS":"37191","TOT_ENP":692,"ELEV":109,"CNTL_TWR":"Y"}},
{"type":"Feature","geometry":{"type":"Point","coordinates":[-160.19009051641848,62.64732784685049]},"properties":{"OBJECTID":177,"ICAO":"PANV","IATA":"ANV","NAME":"Anvik Airport","CITY":"Anvik","STATE":"AK","STATE_FIPS":"02","COUNTY":"Yukon-Koyukuk","FIPS":"02290","TOT_ENP":814,"ELEV":291,"CNTL_TWR":"N"}},
{"type":"Feature","geometry":{"type":"Point","coordinates":[-99.20050732234188,35.33984508279411]},"properties":{"OBJECTID":178,"ICAO":"KCSM","IATA":"CSM","NAME":"Clinton-Sherman Airport","CITY":"Clinton","STATE":"OK","STATE_FIPS":"40","COUNTY":"Washita","FIPS":"40149","TOT_ENP":68,"ELEV":1922,"CNTL_TWR":"Y"}},
{"type":"Feature","geometry":{"type":"Point","coordinates":[-99.85539128667693,32.41979052622037]},"properties":{"OBJECTID":179,"ICAO":"KDYS","IATA":"DYS","NAME":"Dyess Air Force Base","CITY":"Abilene","STATE":"TX","STATE_FIPS":"48","COUNTY":"Taylor","FIPS":"48441","TOT_ENP":978,"ELEV":1789,"CNTL_TWR":"Y"}},
{"type":"Feature","geometry":{"type":"Point","coordinates":[-159.56924561019093,62.69230596239578]},"properties":{"OBJECTID":180,"ICAO":"PAHX","IATA":"SHX","NAME":"Shageluk Airport","CITY":"Shageluk","STATE":"AK","STATE_FIPS":"02","COUNTY":"Yukon-Koyukuk","FIPS":"02290","TOT_ENP":739,"ELEV":79,"CNTL_TWR":"N"}},
{"type":"Feature","geometry":{"type":"Point","coordinates":[-80.10769666090448,26.378504825685184]},"properties":{"OBJECTID":181,"ICAO":"KBCT","IATA":"BCT","NAME":"Boca Raton Airport","CITY":"Boca Raton","STATE":"FL","STATE_FIPS":"12","COUNTY":"Palm Beach","FIPS":"12099","TOT_ENP":403,"ELEV":13,"CNTL_TWR":"Y"}},
{"type":"Feature","geometry":{"type":"Point","coordinates":[-158.63338213011704,56.959101622208095]},"properties":{"OBJECTID":182,"ICAO":"PAPH","IATA":"PTH","NAME":"Port Heiden Airport","CITY":"Port Heiden","STATE":"AK","STATE_FIPS":"02","COUNTY":"Lake and Peninsula","FIPS":"02164","TOT_ENP":1037,"ELEV":95,"CNTL_TWR":"N"}},
{"type":"Feature","geometry":{"type":"Point","coordinates":[-72.25166790799159,40.95942534582633]},"properties":{"OBJECTID":183,"ICAO":"KHTO","IATA":"HTO","NAME":"East Hampton Airport","CITY":"East Hampton","STATE":"NY","STATE_FIPS":"36","COUNTY":"Suffolk","FIPS":"36103","TOT_ENP":353,"ELEV":55,"CNTL_TWR":"N"}},
{"type":"Feature","geometry":{"type":"Point","coordinates":[-74.84555801735308,44.93584201899529]},"properties":{"OBJECTID":184,"ICAO":"KMSS","IATA":"MSS","NAME":"Massena International-Richards Field","CITY":"Massena","STATE":"NY","STATE_FIPS":"36","COUNTY":"St Lawrence","FIPS":"36089","TOT_ENP":3350,"ELEV":215,"CNTL_TWR":"N"}},
{"type":"Feature","geometry":{"type":"Point","coordinates":[-74.81346967457824,40.27669914523466]},"properties":{"OBJECTID":185,"ICAO":"KTTN","IATA":"TTN","NAME":"Trenton Mercer Airport","CITY":"Trenton","STATE":"NJ","STATE_FIPS":"34","COUNTY":"Mercer","FIPS":"34021","TOT_ENP":853,"ELEV":213,"CNTL_TWR":"Y"}},
{"type":"Feature","geometry":{"type":"Point","coordinates":[-157.37318559927897,59.451538597308286]},"properties":{"OBJECTID":186,"ICAO":"PANW","IATA":"KNW","NAME":"New Stuyahok Airport","CITY":"New Stuyahok","STATE":"AK","STATE_FIPS":"02","COUNTY":"Bristol Bay","FIPS":"02060","TOT_ENP":838,"ELEV":364,"CNTL_TWR":"N"}},
{"type":"Feature","geometry":{"type":"Point","coordinates":[-147.40656556193358,66.36221971146313]},"properties":{"OBJECTID":187,"ICAO":"PAWB","IATA":"WBQ","NAME":"Beaver Airport","CITY":"Beaver","STATE":"AK","STATE_FIPS":"02","COUNTY":"Upper Yukon","FIPS":"02290","TOT_ENP":1061,"ELEV":359,"CNTL_TWR":"N"}},
{"type":"Feature","geometry":{"type":"Point","coordinates":[-76.41178306124056,38.28598870569954]},"properties":{"OBJECTID":188,"ICAO":"KNHK","IATA":"NHK","NAME":"Patuxent River Naval Air Station/trapnell Field/","CITY":"Patuxent River","STATE":"MD","STATE_FIPS":"24","COUNTY":"St Marys","FIPS":"24037","TOT_ENP":120,"ELEV":39,"CNTL_TWR":"Y"}},
{"type":"Feature","geometry":{"type":"Point","coordinates":[-122.9376962002076,48.48391858302273]},"properties":{"OBJECTID":189,"ICAO":"KS31","IATA":"S31","NAME":"Lopez Island Airport","CITY":"Lopez","STATE":"WA","STATE_FIPS":"53","COUNTY":"San Juan","FIPS":"53055","TOT_ENP":891,"ELEV":209,"CNTL_TWR":"N"}},
{"type":"Feature","geometry":{"type":"Point","coordinates":[-161.81943696901482,59.011517945367814]},"properties":{"OBJECTID":190,"ICAO":"PAPM","IATA":"PTU","NAME":"Platinum Airport","CITY":"Platinum","STATE":"AK","STATE_FIPS":"02","COUNTY":"Bethel","FIPS":"02050","TOT_ENP":1354,"ELEV":18,"CNTL_TWR":"N"}},
{"type":"Feature","geometry":{"type":"Point","coordinates":[-86.61668520296132,39.14602839379535]},"properties":{"OBJECTID":191,"ICAO":"KBMG","IATA":"BMG","NAME":"Monroe County Airport","CITY":"Bloomington","STATE":"IN","STATE_FIPS":"18","COUNTY":"Monroe","FIPS":"18105","TOT_ENP":1312,"ELEV":846,"CNTL_TWR":"Y"}},
{"type":"Feature","geometry":{"type":"Point","coordinates":[-115.87243885105943,43.043604918579604]},"properties":{"OBJECTID":192,"ICAO":"KMUO","IATA":"MUO","NAME":"Mountain Home Air Force Base","CITY":"Mountain Home","STATE":"ID","STATE_FIPS":"16","COUNTY":"Elmore","FIPS":"16039","TOT_ENP":524,"ELEV":2996,"CNTL_TWR":"Y"}},
{"type":"Feature","geometry":{"type":"Point","coordinates":[-93.66263471496404,32.50193780243603]},"properties":{"OBJECTID":193,"ICAO":"KBAD","IATA":"BAD","NAME":"Barksdale Air Force Base","CITY":"Bossier City","STATE":"LA","STATE_FIPS":"22","COUNTY":"Bossier","FIPS":"22015","TOT_ENP":1434,"ELEV":166,"CNTL_TWR":"Y"}},
{"type":"Feature","geometry":{"type":"Point","coordinates":[-157.7304696720002,64.87580603314177]},"properties":{"OBJECTID":194,"ICAO":"PFKU","IATA":"KYU","NAME":"Koyukuk Airport","CITY":"Koyukuk","STATE":"AK","STATE_FIPS":"02","COUNTY":"Yukon-Koyukuk","FIPS":"02290","TOT_ENP":1254,"ELEV":149,"CNTL_TWR":"N"}},
{"type":"Feature","geometry":{"type":"Point","coordinates":[-154.26472105516686,66.03908354733795]},"properties":{"OBJECTID":195,"ICAO":"PAHU","IATA":"HUS","NAME":"Hughes Airport","CITY":"Hughes","STATE":"AK","STATE_FIPS":"02","COUNTY":"Yukon-Koyukuk","FIPS":"02290","TOT_ENP":1225,"ELEV":299,"CNTL_TWR":"N"}},
{"type":"Feature","geometry":{"type":"Point","coordinates":[-160.06492771458886,62.89456084667955]},"properties":{"OBJECTID":196,"ICAO":"NONE","IATA":"KGX","NAME":"Grayling Airport","CITY":"Grayling","STATE":"AK","STATE_FIPS":"02","COUNTY":"Yukon-Koyukuk","FIPS":"02290","TOT_ENP":1005,"ELEV":99,"CNTL_TWR":"N"}},
{"type":"Feature","geometry":{"type":"Point","coordinates":[-87.90154386918255,42.11429788362125]},"properties":{"OBJECTID":197,"ICAO":"KPWK","IATA":"PWK","NAME":"Chicago Executive Airport","CITY":"Chicago/Prospect Heights/Wheeling","STATE":"IL","STATE_FIPS":"17","COUNTY":"Cook","FIPS":"17031","TOT_ENP":1708,"ELEV":647,"CNTL_TWR":"Y"}},
{"type":"Feature","geometry":{"type":"Point","coordinates":[-104.84931607687054,39.57011739658759]},"properties":{"OBJECTID":198,"ICAO":"KAPA","IATA":"APA","NAME":"Centennial Airport","CITY":"Denver","STATE":"CO","STATE_FIPS":"08","COUNTY":"Arapahoe","FIPS":"08005","TOT_ENP":507,"ELEV":5885,"CNTL_TWR":"Y"}},
{"type":"Feature","geometry":{"type":"Point","coordinates":[-83.19296474927279,30.968705862417153]},"properties":{"OBJECTID":199,"ICAO":"KVAD","IATA":"VAD","NAME":"Moody Air Force Base","CITY":"Valdosta","STATE":"GA","STATE_FIPS":"13","COUNTY":"Lowndes","FIPS":"13185","TOT_ENP":648,"ELEV":233,"CNTL_TWR":"Y"}},
{"type":"Feature","geometry":{"type":"Point","coordinates":[-77.51544644404544,38.72142472089439]},"properties":{"OBJECTID":200,"ICAO":"KHEF","IATA":"HEF","NAME":"Manaval Air Stationsas Regional/harry P. Davis Field","CITY":"Manassas","STATE":"VA","STATE_FIPS":"51","COUNTY":"Prince William","FIPS":"51153","TOT_ENP":98,"ELEV":192,"CNTL_TWR":"Y"}},
{"type":"Feature","geometry":{"type":"Point","coordinates":[-156.89735881352624,66.91234200750341]},"properties":{"OBJECTID":201,"ICAO":"POBU","IATA":"OBU","NAME":"Kobuk Airport","CITY":"Kobuk","STATE":"AK","STATE_FIPS":"02","COUNTY":"Kobuk","FIPS":"02188","TOT_ENP":1255,"ELEV":137,"CNTL_TWR":"N"}},
{"type":"Feature","geometry":{"type":"Point","coordinates":[-75.60664089308341,39.67872997642155]},"properties":{"OBJECTID":202,"ICAO":"KILG","IATA":"ILG","NAME":"New Castle Airport","CITY":"Wilmington","STATE":"DE","STATE_FIPS":"10","COUNTY":"New Castle","FIPS":"10003","TOT_ENP":789,"ELEV":80,"CNTL_TWR":"Y"}},
{"type":"Feature","geometry":{"type":"Point","coordinates":[-154.18257638302975,56.938692259784716]},"properties":{"OBJECTID":203,"ICAO":"PAKH","IATA":"AKK","NAME":"Akhiok Airport","CITY":"Akhiok","STATE":"AK","STATE_FIPS":"02","COUNTY":"Kodiak Island","FIPS":"02150","TOT_ENP":1209,"ELEV":44,"CNTL_TWR":"N"}},
{"type":"Feature","geometry":{"type":"Point","coordinates":[-88.86569493504726,39.834569449978346]},"properties":{"OBJECTID":204,"ICAO":"KDEC","IATA":"DEC","NAME":"Decatur Airport","CITY":"Decatur","STATE":"IL","STATE_FIPS":"17","COUNTY":"Macon","FIPS":"17115","TOT_ENP":2456,"ELEV":682,"CNTL_TWR":"Y"}},
{"type":"Feature","geometry":{"type":"Point","coordinates":[-97.38664085492644,35.41474619761749]},"properties":{"OBJECTID":205,"ICAO":"KTIK","IATA":"TIK","NAME":"Tinker Air Force Base","CITY":"Oklahoma City","STATE":"OK","STATE_FIPS":"40","COUNTY":"Oklahoma","FIPS":"40109","TOT_ENP":1406,"ELEV":1291,"CNTL_TWR":"Y"}},
{"type":"Feature","geometry":{"type":"Point","coordinates":[-111.97305082498815,41.12394504689979]},"properties":{"OBJECTID":206,"ICAO":"KHIF","IATA":"HIF","NAME":"Hill Air Force Base","CITY":"Ogden","STATE":"UT","STATE_FIPS":"49","COUNTY":"Davis","FIPS":"49011","TOT_ENP":1696,"ELEV":4789,"CNTL_TWR":"Y"}},
{"type":"Feature","geometry":{"type":"Point","coordinates":[-113.93806754941534,35.259477225616024]},"properties":{"OBJECTID":207,"ICAO":"KIGM","IATA":"IGM","NAME":"Kingman Airport","CITY":"Kingman","STATE":"AZ","STATE_FIPS":"04","COUNTY":"Mohave","FIPS":"04015","TOT_ENP":897,"ELEV":3449,"CNTL_TWR":"N"}},
{"type":"Feature","geometry":{"type":"Point","coordinates":[-147.61451504545593,64.83761680277422]},"properties":{"OBJECTID":208,"ICAO":"PAFB","IATA":"FBK","NAME":"Ladd Army Airfield","CITY":"Fairbanks/Ft Wainwright","STATE":"AK","STATE_FIPS":"02","COUNTY":"Fairbanks North Star","FIPS":"02090","TOT_ENP":563,"ELEV":454,"CNTL_TWR":"Y"}},
{"type":"Feature","geometry":{"type":"Point","coordinates":[-74.41487658107803,40.79935825470989]},"properties":{"OBJECTID":209,"ICAO":"KMMU","IATA":"MMU","NAME":"Morristown Municipal Airport","CITY":"Morristown","STATE":"NJ","STATE_FIPS":"34","COUNTY":"Morris","FIPS":"34027","TOT_ENP":729,"ELEV":187,"CNTL_TWR":"Y"}},
{"type":"Feature","geometry":{"type":"Point","coordinates":[-95.90852798985935,41.119336244304066]},"properties":{"OBJECTID":210,"ICAO":"KOFF","IATA":"OFF","NAME":"Offutt Air Force Base","CITY":"Omaha","STATE":"NE","STATE_FIPS":"31","COUNTY":"Sarpy","FIPS":"31153","TOT_ENP":1234,"ELEV":1048,"CNTL_TWR":"Y"}},
{"type":"Feature","geometry":{"type":"Point","coordinates":[-118.4899842548266,34.20981087234503]},"properties":{"OBJECTID":211,"ICAO":"KVNY","IATA":"VNY","NAME":"Van Nuys Airport","CITY":"Van Nuys","STATE":"CA","STATE_FIPS":"06","COUNTY":"Los Angeles","FIPS":"06037","TOT_ENP":432,"ELEV":802,"CNTL_TWR":"Y"}},
{"type":"Feature","geometry":{"type":"Point","coordinates":[-161.77832799355937,60.70291678029696]},"properties":{"OBJECTID":212,"ICAO":"PAPK","IATA":"PKA","NAME":"Napaskiak Airport","CITY":"Napaskiak","STATE":"AK","STATE_FIPS":"02","COUNTY":"Bethel","FIPS":"02050","TOT_ENP":1868,"ELEV":24,"CNTL_TWR":"N"}},
{"type":"Feature","geometry":{"type":"Point","coordinates":[-90.64642408471752,35.8317155972407]},"properties":{"OBJECTID":213,"ICAO":"KJBR","IATA":"JBR","NAME":"Jonesboro Municipal Airport","CITY":"Jonesboro","STATE":"AR","STATE_FIPS":"05","COUNTY":"Craighead","FIPS":"05031","TOT_ENP":522,"ELEV":262,"CNTL_TWR":"N"}},
{"type":"Feature","geometry":{"type":"Point","coordinates":[-149.4899471408188,68.47966821209775]},"properties":{"OBJECTID":214,"ICAO":"PAGB","IATA":"GBH","NAME":"Galbraith Lake Airport","CITY":"Galbraith Lake","STATE":"AK","STATE_FIPS":"02","COUNTY":"Nome","FIPS":"02180","TOT_ENP":878,"ELEV":2663,"CNTL_TWR":"N"}},
{"type":"Feature","geometry":{"type":"Point","coordinates":[-119.31915331941582,47.20858891772036]},"properties":{"OBJECTID":215,"ICAO":"KMWH","IATA":"MWH","NAME":"Grant County International Airport","CITY":"Moses Lake","STATE":"WA","STATE_FIPS":"53","COUNTY":"Grant","FIPS":"53025","TOT_ENP":1442,"ELEV":1189,"CNTL_TWR":"Y"}},
{"type":"Feature","geometry":{"type":"Point","coordinates":[-93.09622864625794,34.47803420454932]},"properties":{"OBJECTID":216,"ICAO":"KHOT","IATA":"HOT","NAME":"Memorial Field Airport","CITY":"Hot Springs","STATE":"AR","STATE_FIPS":"05","COUNTY":"Garland","FIPS":"05051","TOT_ENP":799,"ELEV":540,"CNTL_TWR":"N"}},
{"type":"Feature","geometry":{"type":"Point","coordinates":[-98.8592025013267,38.34425658049935]},"properties":{"OBJECTID":217,"ICAO":"KGBD","IATA":"GBD","NAME":"Great Bend Municipal Airport","CITY":"Great Bend","STATE":"KS","STATE_FIPS":"20","COUNTY":"Barton","FIPS":"20009","TOT_ENP":719,"ELEV":1887,"CNTL_TWR":"N"}},
{"type":"Feature","geometry":{"type":"Point","coordinates":[-162.76639429296264,66.06956006957824]},"properties":{"OBJECTID":218,"ICAO":"PADE","IATA":"DEE","NAME":"Deering Airport","CITY":"Deering","STATE":"AK","STATE_FIPS":"02","COUNTY":"Kobuk","FIPS":"02188","TOT_ENP":1291,"ELEV":21,"CNTL_TWR":"N"}},
{"type":"Feature","geometry":{"type":"Point","coordinates":[-106.9219818720232,32.28942222320819]},"properties":{"OBJECTID":219,"ICAO":"KLRU","IATA":"LRU","NAME":"Las Cruces International Airport","CITY":"Las Cruces","STATE":"NM","STATE_FIPS":"35","COUNTY":"Dona Ana","FIPS":"35013","TOT_ENP":227,"ELEV":4456,"CNTL_TWR":"N"}},
{"type":"Feature","geometry":{"type":"Point","coordinates":[-156.01445245020975,20.795640405308234]},"properties":{"OBJECTID":220,"ICAO":"PHHN","IATA":"HNM","NAME":"Hana Airport","CITY":"Hana","STATE":"HI","STATE_FIPS":"15","COUNTY":"Maui","FIPS":"15009","TOT_ENP":132,"ELEV":78,"CNTL_TWR":"N"}},
{"type":"Feature","geometry":{"type":"Point","coordinates":[-151.52908412103892,66.91394497417036]},"properties":{"OBJECTID":221,"ICAO":"PABT","IATA":"BTT","NAME":"Bettles Airport","CITY":"Bettles","STATE":"AK","STATE_FIPS":"02","COUNTY":"Yukon-Koyukuk","FIPS":"02290","TOT_ENP":1403,"ELEV":647,"CNTL_TWR":"N"}},
{"type":"Feature","geometry":{"type":"Point","coordinates":[-94.1700640786562,36.00510145704811]},"properties":{"OBJECTID":222,"ICAO":"KFYV","IATA":"FYV","NAME":"Drake Field Airport","CITY":"Fayetteville","STATE":"AR","STATE_FIPS":"05","COUNTY":"Washington","FIPS":"05143","TOT_ENP":1091,"ELEV":1251,"CNTL_TWR":"Y"}},
{"type":"Feature","geometry":{"type":"Point","coordinates":[-90.13140404002473,46.5274834436122]},"properties":{"OBJECTID":223,"ICAO":"KIWD","IATA":"IWD","NAME":"Gogebic-iIon County Airport","CITY":"Ironwood","STATE":"MI","STATE_FIPS":"26","COUNTY":"Gogebic","FIPS":"26053","TOT_ENP":944,"ELEV":1230,"CNTL_TWR":"N"}},
{"type":"Feature","geometry":{"type":"Point","coordinates":[-90.02659357129556,29.82722037225568]},"properties":{"OBJECTID":224,"ICAO":"KNBG","IATA":"NBG","NAME":"New Orleans Naval Air Station Jrb/Alvin Callender Field","CITY":"New Orleans","STATE":"LA","STATE_FIPS":"22","COUNTY":"Jefferson","FIPS":"22051","TOT_ENP":179,"ELEV":2,"CNTL_TWR":"Y"}},
{"type":"Feature","geometry":{"type":"Point","coordinates":[-161.5774650414068,59.11741697106328]},"properties":{"OBJECTID":225,"ICAO":"NONE","IATA":"GNU","NAME":"Goodnews Airport","CITY":"Goodnews","STATE":"AK","STATE_FIPS":"02","COUNTY":"Bethel","FIPS":"02050","TOT_ENP":1649,"ELEV":15,"CNTL_TWR":"N"}},
{"type":"Feature","geometry":{"type":"Point","coordinates":[-145.5794446465705,68.11467096251522]},"properties":{"OBJECTID":226,"ICAO":"PARC","IATA":"ARC","NAME":"Arctic Village Airport","CITY":"Arctic Village","STATE":"AK","STATE_FIPS":"02","COUNTY":"Upper Yukon","FIPS":"02290","TOT_ENP":2047,"ELEV":2092,"CNTL_TWR":"N"}},
{"type":"Feature","geometry":{"type":"Point","coordinates":[-75.40703008611922,43.23381468905092]},"properties":{"OBJECTID":227,"ICAO":"KRME","IATA":"RME","NAME":"Griffiss International Airport","CITY":"Rome","STATE":"NY","STATE_FIPS":"36","COUNTY":"Oneida","FIPS":"36065","TOT_ENP":1082,"ELEV":504,"CNTL_TWR":"Y"}},
{"type":"Feature","geometry":{"type":"Point","coordinates":[-87.61140606916445,33.22063419379623]},"properties":{"OBJECTID":228,"ICAO":"KTCL","IATA":"TCL","NAME":"Tuscaloosa Regional Airport","CITY":"Tuscaloosa","STATE":"AL","STATE_FIPS":"01","COUNTY":"Tuscaloosa","FIPS":"01125","TOT_ENP":2931,"ELEV":170,"CNTL_TWR":"Y"}},
{"type":"Feature","geometry":{"type":"Point","coordinates":[-161.23060519977003,60.90288882505445]},"properties":{"OBJECTID":229,"ICAO":"PFAK","IATA":"AKI","NAME":"Akiak Airport","CITY":"Akiak","STATE":"AK","STATE_FIPS":"02","COUNTY":"Bethel","FIPS":"02050","TOT_ENP":1960,"ELEV":30,"CNTL_TWR":"N"}},
{"type":"Feature","geometry":{"type":"Point","coordinates":[-122.66241117954411,48.49899864636353]},"properties":{"OBJECTID":230,"ICAO":"K74S","IATA":"74S","NAME":"Anacortes Airport","CITY":"Anacortes","STATE":"WA","STATE_FIPS":"53","COUNTY":"Skagit","FIPS":"53057","TOT_ENP":765,"ELEV":241,"CNTL_TWR":"N"}},
{"type":"Feature","geometry":{"type":"Point","coordinates":[-119.11959032333601,34.11927679619731]},"properties":{"OBJECTID":231,"ICAO":"KNTD","IATA":"NTD","NAME":"Point Mugu Naval Air Station (Naval Base Ventura County)","CITY":"Point Mugu","STATE":"CA","STATE_FIPS":"06","COUNTY":"Ventura","FIPS":"06111","TOT_ENP":3109,"ELEV":13,"CNTL_TWR":"Y"}},
{"type":"Feature","geometry":{"type":"Point","coordinates":[-76.29436312276908,40.122369047757445]},"properties":{"OBJECTID":232,"ICAO":"KLNS","IATA":"LNS","NAME":"Lancaster Airport","CITY":"Lancaster","STATE":"PA","STATE_FIPS":"42","COUNTY":"Lancaster","FIPS":"42071","TOT_ENP":6410,"ELEV":403,"CNTL_TWR":"Y"}},
{"type":"Feature","geometry":{"type":"Point","coordinates":[-163.00537272797482,69.73287367708997]},"properties":{"OBJECTID":233,"ICAO":"PPIZ","IATA":"PIZ","NAME":"Point Lay Lrrs Airport","CITY":"Point Lay","STATE":"AK","STATE_FIPS":"02","COUNTY":"Barrow","FIPS":"02185","TOT_ENP":1720,"ELEV":22,"CNTL_TWR":"N"}},
{"type":"Feature","geometry":{"type":"Point","coordinates":[-119.39290160861134,36.31867200690829]},"properties":{"OBJECTID":234,"ICAO":"KVIS","IATA":"VIS","NAME":"Visalia Municipal Airport","CITY":"Visalia","STATE":"CA","STATE_FIPS":"06","COUNTY":"Tulare","FIPS":"06107","TOT_ENP":1831,"ELEV":295,"CNTL_TWR":"N"}},
{"type":"Feature","geometry":{"type":"Point","coordinates":[-77.72650254134112,39.70850792851769]},"properties":{"OBJECTID":235,"ICAO":"KHGR","IATA":"HGR","NAME":"Hagerstown Regional-Richard A Henson Field","CITY":"Hagerstown","STATE":"MD","STATE_FIPS":"24","COUNTY":"Washington","FIPS":"24043","TOT_ENP":10665,"ELEV":703,"CNTL_TWR":"Y"}},
{"type":"Feature","geometry":{"type":"Point","coordinates":[-166.27062921345845,60.371419127884224]},"properties":{"OBJECTID":236,"ICAO":"PAMY","IATA":"MYU","NAME":"Mekoryuk Airport","CITY":"Mekoryuk","STATE":"AK","STATE_FIPS":"02","COUNTY":"Bethel","FIPS":"02050","TOT_ENP":1529,"ELEV":48,"CNTL_TWR":"N"}},
{"type":"Feature","geometry":{"type":"Point","coordinates":[-80.47057408628535,33.972722633877424]},"properties":{"OBJECTID":237,"ICAO":"KSSC","IATA":"SSC","NAME":"Shaw Air Force Base","CITY":"Sumter","STATE":"SC","STATE_FIPS":"45","COUNTY":"Sumter","FIPS":"45085","TOT_ENP":1722,"ELEV":241,"CNTL_TWR":"Y"}},
{"type":"Feature","geometry":{"type":"Point","coordinates":[-103.21703706711929,32.68753345799121]},"properties":{"OBJECTID":238,"ICAO":"KHOB","IATA":"HOB","NAME":"Lea County Regional Airport","CITY":"Hobbs","STATE":"NM","STATE_FIPS":"35","COUNTY":"Lea","FIPS":"35025","TOT_ENP":334,"ELEV":3661,"CNTL_TWR":"Y"}},
{"type":"Feature","geometry":{"type":"Point","coordinates":[-84.30197618052654,33.87561747769189]},"properties":{"OBJECTID":239,"ICAO":"KPDK","IATA":"PDK","NAME":"Dekalb-Peachtree Airport","CITY":"Atlanta","STATE":"GA","STATE_FIPS":"13","COUNTY":"De Kalb","FIPS":"13089","TOT_ENP":463,"ELEV":1003,"CNTL_TWR":"Y"}},
{"type":"Feature","geometry":{"type":"Point","coordinates":[-102.80378785428582,42.053228905558]},"properties":{"OBJECTID":240,"ICAO":"KAIA","IATA":"AIA","NAME":"Alliance Municipal Airport","CITY":"Alliance","STATE":"NE","STATE_FIPS":"31","COUNTY":"Box Butte","FIPS":"31013","TOT_ENP":1416,"ELEV":3931,"CNTL_TWR":"N"}},
{"type":"Feature","geometry":{"type":"Point","coordinates":[-83.53096957763245,42.239312148803435]},"properties":{"OBJECTID":241,"ICAO":"KYIP","IATA":"YIP","NAME":"Willow Run Airport","CITY":"Detroit","STATE":"MI","STATE_FIPS":"26","COUNTY":"Wayne","FIPS":"26163","TOT_ENP":3008,"ELEV":716,"CNTL_TWR":"Y"}},
{"type":"Feature","geometry":{"type":"Point","coordinates":[-165.2716694800756,60.57554624056968]},"properties":{"OBJECTID":242,"ICAO":"NONE","IATA":"4KA","NAME":"Tununak Airport","CITY":"Tununak","STATE":"AK","STATE_FIPS":"02","COUNTY":"Bethel","FIPS":"02050","TOT_ENP":2145,"ELEV":14,"CNTL_TWR":"N"}},
{"type":"Feature","geometry":{"type":"Point","coordinates":[-73.13525122759938,41.478564417998314]},"properties":{"OBJECTID":243,"ICAO":"KOXC","IATA":"OXC","NAME":"Waterbury-Oxford Airport","CITY":"Oxford","STATE":"CT","STATE_FIPS":"09","COUNTY":"New Haven","FIPS":"09009","TOT_ENP":148,"ELEV":726,"CNTL_TWR":"Y"}},
{"type":"Feature","geometry":{"type":"Point","coordinates":[-86.68933769585203,30.427838618219425]},"properties":{"OBJECTID":244,"ICAO":"KHRT","IATA":"HRT","NAME":"Hurlburt Field Airport","CITY":"Mary Esther","STATE":"FL","STATE_FIPS":"12","COUNTY":"Okaloosa","FIPS":"12091","TOT_ENP":2802,"ELEV":38,"CNTL_TWR":"Y"}},
{"type":"Feature","geometry":{"type":"Point","coordinates":[-163.00719480182113,64.55045421471976]},"properties":{"OBJECTID":245,"ICAO":"PAGL","IATA":"GLV","NAME":"Golovin Airport","CITY":"Golovin","STATE":"AK","STATE_FIPS":"02","COUNTY":"Nome","FIPS":"02180","TOT_ENP":1753,"ELEV":59,"CNTL_TWR":"N"}},
{"type":"Feature","geometry":{"type":"Point","coordinates":[-161.97852195790117,60.690332726362385]},"properties":{"OBJECTID":246,"ICAO":"PANA","IATA":"WNA","NAME":"Napakiak Airport","CITY":"Napakiak","STATE":"AK","STATE_FIPS":"02","COUNTY":"Bethel","FIPS":"02050","TOT_ENP":1891,"ELEV":17,"CNTL_TWR":"N"}},
{"type":"Feature","geometry":{"type":"Point","coordinates":[-100.59209212172601,40.2062848058805]},"properties":{"OBJECTID":247,"ICAO":"KMCK","IATA":"MCK","NAME":"Mc Cook Ben Nelson Regional Airport","CITY":"Mc Cook","STATE":"NE","STATE_FIPS":"31","COUNTY":"Red Willow","FIPS":"31145","TOT_ENP":1993,"ELEV":2583,"CNTL_TWR":"N"}},
{"type":"Feature","geometry":{"type":"Point","coordinates":[-123.87870877711993,46.1579773880548]},"properties":{"OBJECTID":248,"ICAO":"KAST","IATA":"AST","NAME":"Astoria Regional Airport","CITY":"Astoria","STATE":"OR","STATE_FIPS":"41","COUNTY":"Clatsop","FIPS":"41007","TOT_ENP":3482,"ELEV":15,"CNTL_TWR":"N"}},
{"type":"Feature","geometry":{"type":"Point","coordinates":[-155.12129346459324,58.98208097133312]},"properties":{"OBJECTID":249,"ICAO":"PAKL","IATA":"LKK","NAME":"Kulik Lake Airport","CITY":"Kulik Lake","STATE":"AK","STATE_FIPS":"02","COUNTY":"Bristol Bay","FIPS":"02060","TOT_ENP":1104,"ELEV":717,"CNTL_TWR":"N"}},
{"type":"Feature","geometry":{"type":"Point","coordinates":[-90.15622715955129,38.57073111511835]},"properties":{"OBJECTID":250,"ICAO":"KCPS","IATA":"CPS","NAME":"St Louis Downtown Airport","CITY":"Cahokia/St Louis","STATE":"IL","STATE_FIPS":"17","COUNTY":"St Clair","FIPS":"17163","TOT_ENP":429,"ELEV":413,"CNTL_TWR":"Y"}},
{"type":"Feature","geometry":{"type":"Point","coordinates":[-93.15473583588755,36.26152758372916]},"properties":{"OBJECTID":251,"ICAO":"KHRO","IATA":"HRO","NAME":"Boone County Airport","CITY":"Harrison","STATE":"AR","STATE_FIPS":"05","COUNTY":"Boone","FIPS":"05009","TOT_ENP":1778,"ELEV":1365,"CNTL_TWR":"N"}},
{"type":"Feature","geometry":{"type":"Point","coordinates":[-155.4699147050434,64.7272224602317]},"properties":{"OBJECTID":252,"ICAO":"PARY","IATA":"RBY","NAME":"Ruby Airport","CITY":"Ruby","STATE":"AK","STATE_FIPS":"02","COUNTY":"Yukon-Koyukuk","FIPS":"02290","TOT_ENP":1809,"ELEV":658,"CNTL_TWR":"N"}},
{"type":"Feature","geometry":{"type":"Point","coordinates":[-95.15875691938783,29.607338166956026]},"properties":{"OBJECTID":253,"ICAO":"KEFD","IATA":"EFD","NAME":"Ellington Field Airport","CITY":"Houston","STATE":"TX","STATE_FIPS":"48","COUNTY":"Harris","FIPS":"48201","TOT_ENP":1206,"ELEV":32,"CNTL_TWR":"Y"}},
{"type":"Feature","geometry":{"type":"Point","coordinates":[-86.93689438266,40.41231362513793]},"properties":{"OBJECTID":254,"ICAO":"KLAF","IATA":"LAF","NAME":"Purdue University Airport","CITY":"Lafayette","STATE":"IN","STATE_FIPS":"18","COUNTY":"Tippecanoe","FIPS":"18157","TOT_ENP":1405,"ELEV":606,"CNTL_TWR":"Y"}},
{"type":"Feature","geometry":{"type":"Point","coordinates":[-176.6460468953119,51.877962852009546]},"properties":{"OBJECTID":255,"ICAO":"PADK","IATA":"ADK","NAME":"Adak Airport","CITY":"Adak Island","STATE":"AK","STATE_FIPS":"02","COUNTY":"Aleutian Islands","FIPS":"02016","TOT_ENP":2097,"ELEV":18,"CNTL_TWR":"N"}},
{"type":"Feature","geometry":{"type":"Point","coordinates":[-163.41277484672287,64.68919312029448]},"properties":{"OBJECTID":256,"ICAO":"PAWM","IATA":"WMO","NAME":"White Mountain Airport","CITY":"White Mountain","STATE":"AK","STATE_FIPS":"02","COUNTY":"Nome","FIPS":"02180","TOT_ENP":1495,"ELEV":267,"CNTL_TWR":"N"}},
{"type":"Feature","geometry":{"type":"Point","coordinates":[-98.58117481292504,29.384232997648212]},"properties":{"OBJECTID":257,"ICAO":"KSKF","IATA":"SKF","NAME":"Lackland Air Force Base (Kelly Field Annex)","CITY":"San Antonio","STATE":"TX","STATE_FIPS":"48","COUNTY":"Bexar","FIPS":"48029","TOT_ENP":8880,"ELEV":691,"CNTL_TWR":"Y"}},
{"type":"Feature","geometry":{"type":"Point","coordinates":[-160.39694514110425,59.053626157891074]},"properties":{"OBJECTID":258,"ICAO":"PATG","IATA":"TOG","NAME":"Togiak Airport","CITY":"Togiak Village","STATE":"AK","STATE_FIPS":"02","COUNTY":"Bethel","FIPS":"02070","TOT_ENP":2312,"ELEV":21,"CNTL_TWR":"N"}},
{"type":"Feature","geometry":{"type":"Point","coordinates":[-146.36638628391486,67.00867687721785]},"properties":{"OBJECTID":259,"ICAO":"PAVE","IATA":"VEE","NAME":"Venetie Airport","CITY":"Venetie","STATE":"AK","STATE_FIPS":"02","COUNTY":"Upper Yukon","FIPS":"02290","TOT_ENP":2523,"ELEV":574,"CNTL_TWR":"N"}},
{"type":"Feature","geometry":{"type":"Point","coordinates":[-104.19256717555413,47.70686848642964]},"properties":{"OBJECTID":260,"ICAO":"KSDY","IATA":"SDY","NAME":"Sidney-Richland Municipal Airport","CITY":"Sidney","STATE":"MT","STATE_FIPS":"30","COUNTY":"Richland","FIPS":"30083","TOT_ENP":3659,"ELEV":1985,"CNTL_TWR":"N"}},
{"type":"Feature","geometry":{"type":"Point","coordinates":[-84.4186155724571,39.10334051335985]},"properties":{"OBJECTID":261,"ICAO":"KLUK","IATA":"LUK","NAME":"Cincinnati Municipal Airport Lunken Field","CITY":"Cincinnati","STATE":"OH","STATE_FIPS":"39","COUNTY":"Hamilton","FIPS":"39061","TOT_ENP":1008,"ELEV":483,"CNTL_TWR":"Y"}},
{"type":"Feature","geometry":{"type":"Point","coordinates":[-91.19447056548557,39.943025316358046]},"properties":{"OBJECTID":262,"ICAO":"KUIN","IATA":"UIN","NAME":"Quincy Regional-Baldwin Field","CITY":"Quincy","STATE":"IL","STATE_FIPS":"17","COUNTY":"Adams","FIPS":"17001","TOT_ENP":7783,"ELEV":768,"CNTL_TWR":"N"}},
{"type":"Feature","geometry":{"type":"Point","coordinates":[-81.68333690747278,41.517508102038335]},"properties":{"OBJECTID":263,"ICAO":"KBKL","IATA":"BKL","NAME":"Burke Lakefront Airport","CITY":"Cleveland","STATE":"OH","STATE_FIPS":"39","COUNTY":"Cuyahoga","FIPS":"39035","TOT_ENP":1713,"ELEV":583,"CNTL_TWR":"Y"}},
{"type":"Feature","geometry":{"type":"Point","coordinates":[-152.50053197158545,57.92287744033621]},"properties":{"OBJECTID":264,"ICAO":"NONE","IATA":"4K5","NAME":"Ouzinkie Airport","CITY":"Ouzinkie","STATE":"AK","STATE_FIPS":"02","COUNTY":"Kodiak Island","FIPS":"02150","TOT_ENP":2784,"ELEV":55,"CNTL_TWR":"N"}},
{"type":"Feature","geometry":{"type":"Point","coordinates":[-80.63435704142125,32.41217328361728]},"properties":{"OBJECTID":265,"ICAO":"KARW","IATA":"ARW","NAME":"Beaufort County Airport","CITY":"Beaufort","STATE":"SC","STATE_FIPS":"45","COUNTY":"Beaufort","FIPS":"45013","TOT_ENP":727,"ELEV":9,"CNTL_TWR":"N"}},
{"type":"Feature","geometry":{"type":"Point","coordinates":[-86.24689457368686,44.27248032030087]},"properties":{"OBJECTID":266,"ICAO":"KMBL","IATA":"MBL","NAME":"Manistee County-Blacker Airport","CITY":"Manistee","STATE":"MI","STATE_FIPS":"26","COUNTY":"Manistee","FIPS":"26101","TOT_ENP":3413,"ELEV":621,"CNTL_TWR":"N"}},
{"type":"Feature","geometry":{"type":"Point","coordinates":[-158.7413310344609,64.31897995321475]},"properties":{"OBJECTID":267,"ICAO":"PAKV","IATA":"KAL","NAME":"Kaltag Airport","CITY":"Kaltag","STATE":"AK","STATE_FIPS":"02","COUNTY":"Yukon-Koyukuk","FIPS":"02290","TOT_ENP":2325,"ELEV":181,"CNTL_TWR":"N"}},
{"type":"Feature","geometry":{"type":"Point","coordinates":[-80.22200311083492,36.13372908971297]},"properties":{"OBJECTID":268,"ICAO":"KINT","IATA":"INT","NAME":"Smith Reynolds Airport","CITY":"Winston Salem","STATE":"NC","STATE_FIPS":"37","COUNTY":"Forsyth","FIPS":"37067","TOT_ENP":1558,"ELEV":969,"CNTL_TWR":"Y"}},
{"type":"Feature","geometry":{"type":"Point","coordinates":[-164.84780088650203,62.52055509942301]},"properties":{"OBJECTID":269,"ICAO":"NONE","IATA":"SXP","NAME":"Sheldon Point Airport","CITY":"Sheldon Point","STATE":"AK","STATE_FIPS":"02","COUNTY":"Wade Hampton","FIPS":"02270","TOT_ENP":1351,"ELEV":12,"CNTL_TWR":"N"}},
{"type":"Feature","geometry":{"type":"Point","coordinates":[-157.43576864076334,70.46727563148801]},"properties":{"OBJECTID":270,"ICAO":"PATQ","IATA":"ATK","NAME":"Atqasuk Edward Burnell Sr Memorial Airport","CITY":"Atqasuk","STATE":"AK","STATE_FIPS":"02","COUNTY":"North Slope","FIPS":"02185","TOT_ENP":2499,"ELEV":96,"CNTL_TWR":"N"}},
{"type":"Feature","geometry":{"type":"Point","coordinates":[-166.4657469951647,65.33133152573595]},"properties":{"OBJECTID":271,"ICAO":"PFKT","IATA":"KTS","NAME":"Brevig Mission Airport","CITY":"Brevig Mission","STATE":"AK","STATE_FIPS":"02","COUNTY":"Nome","FIPS":"02180","TOT_ENP":2133,"ELEV":38,"CNTL_TWR":"N"}},
{"type":"Feature","geometry":{"type":"Point","coordinates":[-83.59185293696805,32.6401492258351]},"properties":{"OBJECTID":272,"ICAO":"KWRB","IATA":"WRB","NAME":"Robins Air Force Base","CITY":"Warner Robins","STATE":"GA","STATE_FIPS":"13","COUNTY":"Houston","FIPS":"13153","TOT_ENP":1892,"ELEV":294,"CNTL_TWR":"Y"}},
{"type":"Feature","geometry":{"type":"Point","coordinates":[-103.09539904201597,42.83756297476549]},"properties":{"OBJECTID":273,"ICAO":"KCDR","IATA":"CDR","NAME":"Chadron Municipal Airport","CITY":"Chadron","STATE":"NE","STATE_FIPS":"31","COUNTY":"Dawes","FIPS":"31045","TOT_ENP":1769,"ELEV":3298,"CNTL_TWR":"N"}},
{"type":"Feature","geometry":{"type":"Point","coordinates":[-75.9652520563771,40.378508100805675]},"properties":{"OBJECTID":274,"ICAO":"KRDG","IATA":"RDG","NAME":"Reading Regional/carl A Spaatz Field","CITY":"Reading","STATE":"PA","STATE_FIPS":"42","COUNTY":"Berks","FIPS":"42011","TOT_ENP":1703,"ELEV":344,"CNTL_TWR":"Y"}},
{"type":"Feature","geometry":{"type":"Point","coordinates":[-120.51392987338335,37.28475503873932]},"properties":{"OBJECTID":275,"ICAO":"KMCE","IATA":"MCE","NAME":"Merced Regional//macready Field","CITY":"Merced","STATE":"CA","STATE_FIPS":"06","COUNTY":"Merced","FIPS":"06047","TOT_ENP":2051,"ELEV":155,"CNTL_TWR":"N"}},
{"type":"Feature","geometry":{"type":"Point","coordinates":[-104.26328728582592,32.33747731811172]},"properties":{"OBJECTID":276,"ICAO":"KCNM","IATA":"CNM","NAME":"Cavern City Air Terminal Airport","CITY":"Carlsbad","STATE":"NM","STATE_FIPS":"35","COUNTY":"Eddy","FIPS":"35015","TOT_ENP":2606,"ELEV":3295,"CNTL_TWR":"N"}},
{"type":"Feature","geometry":{"type":"Point","coordinates":[-162.2731610641473,60.866745671380386]},"properties":{"OBJECTID":277,"ICAO":"NONE","IATA":"4A2","NAME":"Atmautluak Airport","CITY":"Atmautluak","STATE":"AK","STATE_FIPS":"02","COUNTY":"Bethel","FIPS":"02050","TOT_ENP":2115,"ELEV":17,"CNTL_TWR":"N"}},
{"type":"Feature","geometry":{"type":"Point","coordinates":[-97.0857018573954,36.16122831672692]},"properties":{"OBJECTID":278,"ICAO":"KSWO","IATA":"SWO","NAME":"Stillwater Regional Airport","CITY":"Stillwater","STATE":"OK","STATE_FIPS":"40","COUNTY":"Payne","FIPS":"40119","TOT_ENP":1964,"ELEV":1000,"CNTL_TWR":"Y"}},
{"type":"Feature","geometry":{"type":"Point","coordinates":[-117.21311589151895,32.698199764228946]},"properties":{"OBJECTID":279,"ICAO":"KNZY","IATA":"NZY","NAME":"North Island Naval Air Station /Halsey Field","CITY":"San Diego","STATE":"CA","STATE_FIPS":"06","COUNTY":"San Diego","FIPS":"06073","TOT_ENP":2261,"ELEV":26,"CNTL_TWR":"Y"}},
{"type":"Feature","geometry":{"type":"Point","coordinates":[-162.27055292311323,64.61497130543341]},"properties":{"OBJECTID":280,"ICAO":"PFEL","IATA":"ELI","NAME":"Elim Airport","CITY":"Elim","STATE":"AK","STATE_FIPS":"02","COUNTY":"Nome","FIPS":"02180","TOT_ENP":2376,"ELEV":162,"CNTL_TWR":"N"}},
{"type":"Feature","geometry":{"type":"Point","coordinates":[-151.13809290607753,61.0766634217257]},"properties":{"OBJECTID":281,"ICAO":"NONE","IATA":"TYE","NAME":"Tyonek Airport","CITY":"Tyonek","STATE":"AK","STATE_FIPS":"02","COUNTY":"Kenai-Cook Inlet","FIPS":"02122","TOT_ENP":2770,"ELEV":110,"CNTL_TWR":"N"}},
{"type":"Feature","geometry":{"type":"Point","coordinates":[-157.8574999628082,67.10631383834959]},"properties":{"OBJECTID":282,"ICAO":"PAFM","IATA":"AFM","NAME":"Ambler Airport","CITY":"Ambler","STATE":"AK","STATE_FIPS":"02","COUNTY":"Northwest Arctic","FIPS":"02188","TOT_ENP":2110,"ELEV":334,"CNTL_TWR":"N"}},
{"type":"Feature","geometry":{"type":"Point","coordinates":[-98.2285650614188,44.38520156338109]},"properties":{"OBJECTID":283,"ICAO":"KHON","IATA":"HON","NAME":"Huron Regional Airport","CITY":"Huron","STATE":"SD","STATE_FIPS":"46","COUNTY":"Beadle","FIPS":"46005","TOT_ENP":2016,"ELEV":1289,"CNTL_TWR":"N"}},
{"type":"Feature","geometry":{"type":"Point","coordinates":[-152.84612190821744,57.88537839497968]},"properties":{"OBJECTID":284,"ICAO":"NONE","IATA":"ORI","NAME":"Port Lions Airport","CITY":"Port Lions","STATE":"AK","STATE_FIPS":"02","COUNTY":"Kodiak Island","FIPS":"02150","TOT_ENP":2257,"ELEV":52,"CNTL_TWR":"N"}},
{"type":"Feature","geometry":{"type":"Point","coordinates":[-103.07928713854227,34.42514474175579]},"properties":{"OBJECTID":285,"ICAO":"KCVN","IATA":"CVN","NAME":"Clovis Municipal Airport","CITY":"Clovis","STATE":"NM","STATE_FIPS":"35","COUNTY":"Curry","FIPS":"35009","TOT_ENP":2165,"ELEV":4216,"CNTL_TWR":"N"}},
{"type":"Feature","geometry":{"type":"Point","coordinates":[-151.04392098410747,61.172220453141165]},"properties":{"OBJECTID":286,"ICAO":"PABG","IATA":"BLG","NAME":"Beluga Airport","CITY":"Beluga","STATE":"AK","STATE_FIPS":"02","COUNTY":"Kenai-Cook Inlet","FIPS":"02122","TOT_ENP":2144,"ELEV":130,"CNTL_TWR":"N"}},
{"type":"Feature","geometry":{"type":"Point","coordinates":[-161.1542913722675,64.93948846455959]},"properties":{"OBJECTID":287,"ICAO":"PAKK","IATA":"KKA","NAME":"Koyuk Alfred Adams Airport","CITY":"Koyuk","STATE":"AK","STATE_FIPS":"02","COUNTY":"Nome","FIPS":"02180","TOT_ENP":2366,"ELEV":154,"CNTL_TWR":"N"}},
{"type":"Feature","geometry":{"type":"Point","coordinates":[-162.27801699380888,63.515970421326415]},"properties":{"OBJECTID":288,"ICAO":"NONE","IATA":"WBB","NAME":"Stebbins Airport","CITY":"Stebbins","STATE":"AK","STATE_FIPS":"02","COUNTY":"Nome","FIPS":"02180","TOT_ENP":2603,"ELEV":14,"CNTL_TWR":"N"}},
{"type":"Feature","geometry":{"type":"Point","coordinates":[-161.4437160713821,60.79033283680678]},"properties":{"OBJECTID":289,"ICAO":"PFKW","IATA":"KWT","NAME":"Kwethluk Airport","CITY":"Kwethluk","STATE":"AK","STATE_FIPS":"02","COUNTY":"Bethel","FIPS":"02050","TOT_ENP":3276,"ELEV":25,"CNTL_TWR":"N"}},
{"type":"Feature","geometry":{"type":"Point","coordinates":[-108.15639515952864,32.63655221196649]},"properties":{"OBJECTID":290,"ICAO":"KSVC","IATA":"SVC","NAME":"Grant County Airport","CITY":"Silver City","STATE":"NM","STATE_FIPS":"35","COUNTY":"Grant","FIPS":"35017","TOT_ENP":1501,"ELEV":5446,"CNTL_TWR":"N"}},
{"type":"Feature","geometry":{"type":"Point","coordinates":[-157.16242876270417,66.88807699411763]},"properties":{"OBJECTID":291,"ICAO":"PAGH","IATA":"SHG","NAME":"Shungnak Airport","CITY":"Shungnak","STATE":"AK","STATE_FIPS":"02","COUNTY":"Kobuk","FIPS":"02188","TOT_ENP":2238,"ELEV":197,"CNTL_TWR":"N"}},
{"type":"Feature","geometry":{"type":"Point","coordinates":[-160.96949433555926,61.09683284434044]},"properties":{"OBJECTID":292,"ICAO":"NONE","IATA":"TLT","NAME":"Tuluksak Airport","CITY":"Tuluksak","STATE":"AK","STATE_FIPS":"02","COUNTY":"Bethel","FIPS":"02050","TOT_ENP":2658,"ELEV":30,"CNTL_TWR":"N"}},
{"type":"Feature","geometry":{"type":"Point","coordinates":[-91.12551263525074,40.783232445456065]},"properties":{"OBJECTID":293,"ICAO":"KBRL","IATA":"BRL","NAME":"Southeast Iowa Regional Airport","CITY":"Burlington","STATE":"IA","STATE_FIPS":"19","COUNTY":"Des Moines","FIPS":"19057","TOT_ENP":2821,"ELEV":698,"CNTL_TWR":"N"}},
{"type":"Feature","geometry":{"type":"Point","coordinates":[-162.2662459853171,55.11634826633633]},"properties":{"OBJECTID":294,"ICAO":"PAVC","IATA":"KVC","NAME":"King Cove Airport","CITY":"King Cove","STATE":"AK","STATE_FIPS":"02","COUNTY":"Aleutian Islands","FIPS":"02013","TOT_ENP":2718,"ELEV":155,"CNTL_TWR":"N"}},
{"type":"Feature","geometry":{"type":"Point","coordinates":[-93.06034970240592,44.934631018249945]},"properties":{"OBJECTID":295,"ICAO":"KSTP","IATA":"STP","NAME":"St. Paul Downtown Airport / Holman Field","CITY":"St Paul","STATE":"MN","STATE_FIPS":"27","COUNTY":"Ramsey","FIPS":"27123","TOT_ENP":150,"ELEV":705,"CNTL_TWR":"Y"}},
{"type":"Feature","geometry":{"type":"Point","coordinates":[-161.31942178187094,61.77488972354803]},"properties":{"OBJECTID":296,"ICAO":"PARS","IATA":"RSH","NAME":"Russian Mission Airport","CITY":"Russian Mission","STATE":"AK","STATE_FIPS":"02","COUNTY":"Wade Hampton","FIPS":"02270","TOT_ENP":3002,"ELEV":51,"CNTL_TWR":"N"}},
{"type":"Feature","geometry":{"type":"Point","coordinates":[-76.36050198159751,37.08284045545622]},"properties":{"OBJECTID":297,"ICAO":"KLFI","IATA":"LFI","NAME":"Langley Air Force Base","CITY":"Hampton","STATE":"VA","STATE_FIPS":"51","COUNTY":"Hampton","FIPS":"51650","TOT_ENP":2039,"ELEV":11,"CNTL_TWR":"Y"}},
{"type":"Feature","geometry":{"type":"Point","coordinates":[-98.67820356544217,46.92972985116205]},"properties":{"OBJECTID":298,"ICAO":"KJMS","IATA":"JMS","NAME":"Jamestown Regional Airport","CITY":"Jamestown","STATE":"ND","STATE_FIPS":"38","COUNTY":"Stutsman","FIPS":"38093","TOT_ENP":4434,"ELEV":1500,"CNTL_TWR":"N"}},
{"type":"Feature","geometry":{"type":"Point","coordinates":[-111.91053897901475,33.6228941425552]},"properties":{"OBJECTID":299,"ICAO":"KSDL","IATA":"SDL","NAME":"Scottsdale Airport","CITY":"Scottsdale","STATE":"AZ","STATE_FIPS":"04","COUNTY":"Maricopa","FIPS":"04013","TOT_ENP":1025,"ELEV":1510,"CNTL_TWR":"Y"}},
{"type":"Feature","geometry":{"type":"Point","coordinates":[-162.44061306196778,60.90601064664713]},"properties":{"OBJECTID":300,"ICAO":"NONE","IATA":"16A","NAME":"Nunapitchuk Airport","CITY":"Nunapitchuk","STATE":"AK","STATE_FIPS":"02","COUNTY":"Bethel","FIPS":"02050","TOT_ENP":2877,"ELEV":12,"CNTL_TWR":"N"}},
{"type":"Feature","geometry":{"type":"Point","coordinates":[-94.59276542000617,39.12317598892554]},"properties":{"OBJECTID":301,"ICAO":"KMKC","IATA":"MKC","NAME":"Charles B. Wheeler Downtown Airport","CITY":"Kansas City","STATE":"MO","STATE_FIPS":"29","COUNTY":"Clay","FIPS":"29047","TOT_ENP":1169,"ELEV":759,"CNTL_TWR":"Y"}},
{"type":"Feature","geometry":{"type":"Point","coordinates":[-109.75485505165693,38.75496197304187]},"properties":{"OBJECTID":302,"ICAO":"KCNY","IATA":"CNY","NAME":"Canyonlands Field Airport","CITY":"Moab","STATE":"UT","STATE_FIPS":"49","COUNTY":"Grand","FIPS":"49019","TOT_ENP":2701,"ELEV":4557,"CNTL_TWR":"N"}},
{"type":"Feature","geometry":{"type":"Point","coordinates":[-115.03426483034332,36.23620229367157]},"properties":{"OBJECTID":303,"ICAO":"KLSV","IATA":"LSV","NAME":"Nellis Air Force Base","CITY":"Las Vegas","STATE":"NV","STATE_FIPS":"32","COUNTY":"Clark","FIPS":"32003","TOT_ENP":2726,"ELEV":1870,"CNTL_TWR":"Y"}},
{"type":"Feature","geometry":{"type":"Point","coordinates":[-151.83156077494365,59.34826047263249]},"properties":{"OBJECTID":304,"ICAO":"NONE","IATA":"PGM","NAME":"Port Graham Airport","CITY":"Port Graham","STATE":"AK","STATE_FIPS":"02","COUNTY":"Kenai-Cook Inlet","FIPS":"02122","TOT_ENP":2738,"ELEV":93,"CNTL_TWR":"N"}},
{"type":"Feature","geometry":{"type":"Point","coordinates":[-158.07424748236633,64.72931098340763]},"properties":{"OBJECTID":305,"ICAO":"PANU","IATA":"NUL","NAME":"Nulato Airport","CITY":"Nulato","STATE":"AK","STATE_FIPS":"02","COUNTY":"Yukon-Koyukuk","FIPS":"02290","TOT_ENP":3404,"ELEV":399,"CNTL_TWR":"N"}},
{"type":"Feature","geometry":{"type":"Point","coordinates":[-121.92751320024081,38.262672045684326]},"properties":{"OBJECTID":306,"ICAO":"KSUU","IATA":"SUU","NAME":"Travis Air Force Base","CITY":"Fairfield","STATE":"CA","STATE_FIPS":"06","COUNTY":"Solano","FIPS":"06095","TOT_ENP":2188,"ELEV":62,"CNTL_TWR":"Y"}},
{"type":"Feature","geometry":{"type":"Point","coordinates":[-107.95084236585228,43.96571969657407]},"properties":{"OBJECTID":307,"ICAO":"KWRL","IATA":"WRL","NAME":"Worland Municipal Airport","CITY":"Worland","STATE":"WY","STATE_FIPS":"56","COUNTY":"Washakie","FIPS":"56043","TOT_ENP":2737,"ELEV":4227,"CNTL_TWR":"N"}},
{"type":"Feature","geometry":{"type":"Point","coordinates":[-143.58189949007306,70.13399121653583]},"properties":{"OBJECTID":308,"ICAO":"PABA","IATA":"BTI","NAME":"Barter Island Lrrs Airport","CITY":"Barter Island Lrrs","STATE":"AK","STATE_FIPS":"02","COUNTY":"Upper Yukon","FIPS":"02185","TOT_ENP":2828,"ELEV":2,"CNTL_TWR":"N"}},
{"type":"Feature","geometry":{"type":"Point","coordinates":[-163.16855934909486,59.87646866542997]},"properties":{"OBJECTID":309,"ICAO":"PAGG","IATA":"GGV","NAME":"Kwigillingok Airport","CITY":"Kwigillingok","STATE":"AK","STATE_FIPS":"02","COUNTY":"Bethel","FIPS":"02050","TOT_ENP":3692,"ELEV":18,"CNTL_TWR":"N"}},
{"type":"Feature","geometry":{"type":"Point","coordinates":[-96.18500906385657,48.06567521603165]},"properties":{"OBJECTID":310,"ICAO":"KTVF","IATA":"TVF","NAME":"Thief River Falls Regional Airport","CITY":"Thief River Falls","STATE":"MN","STATE_FIPS":"27","COUNTY":"Pennington","FIPS":"27113","TOT_ENP":2479,"ELEV":1119,"CNTL_TWR":"N"}},
{"type":"Feature","geometry":{"type":"Point","coordinates":[-156.97361144518004,21.211043399529274]},"properties":{"OBJECTID":311,"ICAO":"PH","IATA":"LUP","NAME":"Kalaupapa Airport","CITY":"Kalaupapa","STATE":"HI","STATE_FIPS":"15","COUNTY":"Kalawao","FIPS":"15005","TOT_ENP":1217,"ELEV":24,"CNTL_TWR":"N"}},
{"type":"Feature","geometry":{"type":"Point","coordinates":[-160.3413536862814,61.53627393253157]},"properties":{"OBJECTID":312,"ICAO":"PALG","IATA":"KLG","NAME":"Kalskag Airport","CITY":"Kalskag","STATE":"AK","STATE_FIPS":"02","COUNTY":"Bethel","FIPS":"02050","TOT_ENP":3373,"ELEV":55,"CNTL_TWR":"N"}},
{"type":"Feature","geometry":{"type":"Point","coordinates":[-71.87570983087352,42.26734760769739]},"properties":{"OBJECTID":313,"ICAO":"KORH","IATA":"ORH","NAME":"Worcester Regional Airport","CITY":"Worcester","STATE":"MA","STATE_FIPS":"25","COUNTY":"Worcester","FIPS":"25027","TOT_ENP":35833,"ELEV":1009,"CNTL_TWR":"Y"}},
{"type":"Feature","geometry":{"type":"Point","coordinates":[-98.90834281997559,48.11459095893588]},"properties":{"OBJECTID":314,"ICAO":"KDVL","IATA":"DVL","NAME":"Devils Lake Regional Airport","CITY":"Devils Lake","STATE":"ND","STATE_FIPS":"38","COUNTY":"Ramsey","FIPS":"38071","TOT_ENP":5242,"ELEV":1456,"CNTL_TWR":"N"}},
{"type":"Feature","geometry":{"type":"Point","coordinates":[-90.65206233169351,38.66211813119418]},